{
"type": "FeatureCollection",
"name": "street_names_blk",
"crs": { "type": "name", "properties": { "name": "urn:ogc:def:crs:OGC:1.3:CRS84" } },
"features": [
{ "type": "Feature", "properties": { "street_name": "Aachener Platz" }, "geometry": { "type": "Point", "coordinates": [ 11.797000851589356, 51.162450132753762 ] } },
{ "type": "Feature", "properties": { "street_name": "Ackermannstraße" }, "geometry": { "type": "Point", "coordinates": [ 12.106749350083662, 51.157367500000184 ] } },
{ "type": "Feature", "properties": { "street_name": "Adolf-von-Menzel-Straße" }, "geometry": { "type": "Point", "coordinates": [ 11.730559515076195, 51.132009771420186 ] } },
{ "type": "Feature", "properties": { "street_name": "Adolf-von-Richter-Straße" }, "geometry": { "type": "Point", "coordinates": [ 12.01937175411884, 51.230806656659098 ] } },
{ "type": "Feature", "properties": { "street_name": "Aga Zeitzer Straße" }, "geometry": { "type": "Point", "coordinates": [ 12.084189620477394, 50.975491067194071 ] } },
{ "type": "Feature", "properties": { "street_name": "Agaer Straße" }, "geometry": { "type": "Point", "coordinates": [ 12.085463518621975, 50.979148469670918 ] } },
{ "type": "Feature", "properties": { "street_name": "Agricolaweg" }, "geometry": { "type": "Point", "coordinates": [ 12.107200692400292, 51.152555151099136 ] } },
{ "type": "Feature", "properties": { "street_name": "Ahornstraße" }, "geometry": { "type": "Point", "coordinates": [ 11.93354500580266, 51.035508060291264 ] } },
{ "type": "Feature", "properties": { "street_name": "Ahornweg" }, "geometry": { "type": "Point", "coordinates": [ 12.180168866956569, 51.065411641259431 ] } },
{ "type": "Feature", "properties": { "street_name": "Akazienweg" }, "geometry": { "type": "Point", "coordinates": [ 12.154129323460378, 51.033144761566014 ] } },
{ "type": "Feature", "properties": { "street_name": "Albersrodaer Weg" }, "geometry": { "type": "Point", "coordinates": [ 11.718691689219982, 51.265604601927286 ] } },
{ "type": "Feature", "properties": { "street_name": "Albert-Einstein-Straße" }, "geometry": { "type": "Point", "coordinates": [ 11.814864254126343, 51.159511120054738 ] } },
{ "type": "Feature", "properties": { "street_name": "Albert-Kellermann-Straße" }, "geometry": { "type": "Point", "coordinates": [ 12.105101851050911, 51.156242236737597 ] } },
{ "type": "Feature", "properties": { "street_name": "Albert-Költzsch-Straße" }, "geometry": { "type": "Point", "coordinates": [ 11.957115301157733, 51.195702350284769 ] } },
{ "type": "Feature", "properties": { "street_name": "Albert-Lortzing-Straße" }, "geometry": { "type": "Point", "coordinates": [ 11.939228783998066, 51.197767443828269 ] } },
{ "type": "Feature", "properties": { "street_name": "Albert-Schwarick-Weg" }, "geometry": { "type": "Point", "coordinates": [ 11.987550823020015, 51.210478434452313 ] } },
{ "type": "Feature", "properties": { "street_name": "Albert-Schweitzer-Straße" }, "geometry": { "type": "Point", "coordinates": [ 11.970826335079927, 51.215861953500017 ] } },
{ "type": "Feature", "properties": { "street_name": "Albinusweg" }, "geometry": { "type": "Point", "coordinates": [ 12.09803130003813, 51.162428650000287 ] } },
{ "type": "Feature", "properties": { "street_name": "Albrecht-Dürer-Straße" }, "geometry": { "type": "Point", "coordinates": [ 11.801580851169485, 51.149530576387242 ] } },
{ "type": "Feature", "properties": { "street_name": "Albrechtstraße" }, "geometry": { "type": "Point", "coordinates": [ 12.124978301250929, 51.052876694814167 ] } },
{ "type": "Feature", "properties": { "street_name": "Alfred-Erbes-Weg" }, "geometry": { "type": "Point", "coordinates": [ 12.038631571989647, 51.120828111187919 ] } },
{ "type": "Feature", "properties": { "street_name": "Alfred-Görner-Straße" }, "geometry": { "type": "Point", "coordinates": [ 12.169355555109162, 51.226299042252592 ] } },
{ "type": "Feature", "properties": { "street_name": "Alfred-Junge-Straße" }, "geometry": { "type": "Point", "coordinates": [ 11.987108016828458, 51.201935985829067 ] } },
{ "type": "Feature", "properties": { "street_name": "Allee" }, "geometry": { "type": "Point", "coordinates": [ 12.151487733707569, 50.965444113214708 ] } },
{ "type": "Feature", "properties": { "street_name": "Allerstedter Straße" }, "geometry": { "type": "Point", "coordinates": [ 11.46025162156686, 51.247995630866463 ] } },
{ "type": "Feature", "properties": { "street_name": "Almersstraße" }, "geometry": { "type": "Point", "coordinates": [ 11.809904665445478, 51.161202703676338 ] } },
{ "type": "Feature", "properties": { "street_name": "Almricher Weg" }, "geometry": { "type": "Point", "coordinates": [ 11.766862098765356, 51.138358821098464 ] } },
{ "type": "Feature", "properties": { "street_name": "Alte Bergstraße" }, "geometry": { "type": "Point", "coordinates": [ 11.978680071691164, 51.201195143917978 ] } },
{ "type": "Feature", "properties": { "street_name": "Alte Dorfstraße" }, "geometry": { "type": "Point", "coordinates": [ 12.092713368923299, 51.037071333108102 ] } },
{ "type": "Feature", "properties": { "street_name": "Alte Handelsstraße" }, "geometry": { "type": "Point", "coordinates": [ 12.199143339954151, 51.223522070671549 ] } },
{ "type": "Feature", "properties": { "street_name": "Alte Hauptstraße" }, "geometry": { "type": "Point", "coordinates": [ 11.984160954041911, 51.223266993773827 ] } },
{ "type": "Feature", "properties": { "street_name": "Alte Leipziger Straße" }, "geometry": { "type": "Point", "coordinates": [ 11.976184035115779, 51.199178117171265 ] } },
{ "type": "Feature", "properties": { "street_name": "Alte Naumburger Straße" }, "geometry": { "type": "Point", "coordinates": [ 11.595724300125365, 51.205291300058938 ] } },
{ "type": "Feature", "properties": { "street_name": "alte Poststraße" }, "geometry": { "type": "Point", "coordinates": [ 11.625790152959192, 51.169870121508573 ] } },
{ "type": "Feature", "properties": { "street_name": "Alte Poststraße" }, "geometry": { "type": "Point", "coordinates": [ 11.548808530785502, 51.156633554389352 ] } },
{ "type": "Feature", "properties": { "street_name": "Alte Provinzialstraße" }, "geometry": { "type": "Point", "coordinates": [ 12.027739400779083, 51.223542000066139 ] } },
{ "type": "Feature", "properties": { "street_name": "Alte Schulstraße" }, "geometry": { "type": "Point", "coordinates": [ 11.950826817643945, 51.237809839352508 ] } },
{ "type": "Feature", "properties": { "street_name": "Alte Straße" }, "geometry": { "type": "Point", "coordinates": [ 11.552156400862712, 51.12012938506124 ] } },
{ "type": "Feature", "properties": { "street_name": "Alte Weißenfelder Straße" }, "geometry": { "type": "Point", "coordinates": [ 12.030830328621269, 51.259482305877881 ] } },
{ "type": "Feature", "properties": { "street_name": "Alte Weißenfelser Straße" }, "geometry": { "type": "Point", "coordinates": [ 12.030582236782458, 51.254742347469886 ] } },
{ "type": "Feature", "properties": { "street_name": "Alte Werkstraße" }, "geometry": { "type": "Point", "coordinates": [ 12.123433165394472, 51.057446127300736 ] } },
{ "type": "Feature", "properties": { "street_name": "Altenburger Landstraße" }, "geometry": { "type": "Point", "coordinates": [ 12.241848082054201, 50.996679395080541 ] } },
{ "type": "Feature", "properties": { "street_name": "Altenburger Straße" }, "geometry": { "type": "Point", "coordinates": [ 12.138696370120092, 51.047434950684661 ] } },
{ "type": "Feature", "properties": { "street_name": "Altenburgstraße" }, "geometry": { "type": "Point", "coordinates": [ 11.57526531157691, 51.289018098906794 ] } },
{ "type": "Feature", "properties": { "street_name": "Altenrodaer Straße" }, "geometry": { "type": "Point", "coordinates": [ 11.583730200213482, 51.211921450026942 ] } },
{ "type": "Feature", "properties": { "street_name": "Altenrodaer Weg" }, "geometry": { "type": "Point", "coordinates": [ 11.562858174976425, 51.250261313556599 ] } },
{ "type": "Feature", "properties": { "street_name": "Alter Burgweg" }, "geometry": { "type": "Point", "coordinates": [ 12.072638399296141, 51.021613691790151 ] } },
{ "type": "Feature", "properties": { "street_name": "Alter Heerweg" }, "geometry": { "type": "Point", "coordinates": [ 12.002827206481207, 51.089544998480676 ] } },
{ "type": "Feature", "properties": { "street_name": "Alter Kirschweg" }, "geometry": { "type": "Point", "coordinates": [ 11.952495961959249, 51.235405965023702 ] } },
{ "type": "Feature", "properties": { "street_name": "Alter Mühlenweg" }, "geometry": { "type": "Point", "coordinates": [ 12.018884999802184, 51.022606937074286 ] } },
{ "type": "Feature", "properties": { "street_name": "Alter Naumburger Weg" }, "geometry": { "type": "Point", "coordinates": [ 11.594612590890389, 51.205850974320903 ] } },
{ "type": "Feature", "properties": { "street_name": "Alter Postweg" }, "geometry": { "type": "Point", "coordinates": [ 11.622556887454708, 51.240864966305921 ] } },
{ "type": "Feature", "properties": { "street_name": "Alter Schenkweg" }, "geometry": { "type": "Point", "coordinates": [ 11.556722377434946, 51.114081456702671 ] } },
{ "type": "Feature", "properties": { "street_name": "alternativer Feengrotten-Kyffhäuser Wanderweg" }, "geometry": { "type": "Point", "coordinates": [ 11.631143705088448, 51.24329119544867 ] } },
{ "type": "Feature", "properties": { "street_name": "Am alten Bahnhof" }, "geometry": { "type": "Point", "coordinates": [ 12.138728300409841, 51.250937152177883 ] } },
{ "type": "Feature", "properties": { "street_name": "Am Anger" }, "geometry": { "type": "Point", "coordinates": [ 11.954848216450332, 51.237053712878016 ] } },
{ "type": "Feature", "properties": { "street_name": "Am Auensee" }, "geometry": { "type": "Point", "coordinates": [ 12.048679270793309, 51.186473723937148 ] } },
{ "type": "Feature", "properties": { "street_name": "Am Auetal" }, "geometry": { "type": "Point", "coordinates": [ 12.094525267080256, 51.151772699695442 ] } },
{ "type": "Feature", "properties": { "street_name": "Am Aupitzbachweg" }, "geometry": { "type": "Point", "coordinates": [ 12.052437740087312, 51.18276042300009 ] } },
{ "type": "Feature", "properties": { "street_name": "Am Bach" }, "geometry": { "type": "Point", "coordinates": [ 11.508533382893798, 51.236966615332008 ] } },
{ "type": "Feature", "properties": { "street_name": "Am Bache" }, "geometry": { "type": "Point", "coordinates": [ 11.988897956029669, 51.005145604885925 ] } },
{ "type": "Feature", "properties": { "street_name": "Am Bäckerberg" }, "geometry": { "type": "Point", "coordinates": [ 12.059404271633065, 51.131976007785212 ] } },
{ "type": "Feature", "properties": { "street_name": "Am Backhaus" }, "geometry": { "type": "Point", "coordinates": [ 11.600002289606516, 51.150361236392555 ] } },
{ "type": "Feature", "properties": { "street_name": "Am Bad" }, "geometry": { "type": "Point", "coordinates": [ 11.977532427093768, 51.209887393276915 ] } },
{ "type": "Feature", "properties": { "street_name": "Am Bahnhof" }, "geometry": { "type": "Point", "coordinates": [ 12.023123464031968, 51.267289581220581 ] } },
{ "type": "Feature", "properties": { "street_name": "Am Bahnhof Reuden" }, "geometry": { "type": "Point", "coordinates": [ 12.188291459763583, 51.108194380744969 ] } },
{ "type": "Feature", "properties": { "street_name": "Am Bastianholz" }, "geometry": { "type": "Point", "coordinates": [ 11.881219358748409, 51.132245992036637 ] } },
{ "type": "Feature", "properties": { "street_name": "Am Bauberg" }, "geometry": { "type": "Point", "coordinates": [ 12.025261266600905, 51.12295941084875 ] } },
{ "type": "Feature", "properties": { "street_name": "Am Bauergarten" }, "geometry": { "type": "Point", "coordinates": [ 11.465053276700598, 51.249686663209069 ] } },
{ "type": "Feature", "properties": { "street_name": "Am Bäumchen" }, "geometry": { "type": "Point", "coordinates": [ 12.111860603307031, 51.153524378597282 ] } },
{ "type": "Feature", "properties": { "street_name": "Am Berg" }, "geometry": { "type": "Point", "coordinates": [ 12.220356651641499, 51.130461825363454 ] } },
{ "type": "Feature", "properties": { "street_name": "Am Berge" }, "geometry": { "type": "Point", "coordinates": [ 12.009182736453281, 51.005677406039943 ] } },
{ "type": "Feature", "properties": { "street_name": "Am Bettelweg" }, "geometry": { "type": "Point", "coordinates": [ 12.149258911409216, 51.052948574562187 ] } },
{ "type": "Feature", "properties": { "street_name": "Am Biberbach" }, "geometry": { "type": "Point", "coordinates": [ 11.632851715063175, 51.241953203593546 ] } },
{ "type": "Feature", "properties": { "street_name": "Am Bielbach" }, "geometry": { "type": "Point", "coordinates": [ 11.815075707967317, 51.111483139692261 ] } },
{ "type": "Feature", "properties": { "street_name": "Am Birkenwäldchen" }, "geometry": { "type": "Point", "coordinates": [ 11.931480395000563, 51.201549102307737 ] } },
{ "type": "Feature", "properties": { "street_name": "Am Blindetal" }, "geometry": { "type": "Point", "coordinates": [ 11.627320712187554, 51.241395415416065 ] } },
{ "type": "Feature", "properties": { "street_name": "Am Bockberg" }, "geometry": { "type": "Point", "coordinates": [ 11.550209767762574, 51.273957334895499 ] } },
{ "type": "Feature", "properties": { "street_name": "Am Borauer Teich" }, "geometry": { "type": "Point", "coordinates": [ 12.006139473306092, 51.200776489453176 ] } },
{ "type": "Feature", "properties": { "street_name": "Am Bornberg" }, "geometry": { "type": "Point", "coordinates": [ 12.000456725831517, 51.099809168113936 ] } },
{ "type": "Feature", "properties": { "street_name": "Am Borngarten" }, "geometry": { "type": "Point", "coordinates": [ 11.67175182826043, 51.104323930468375 ] } },
{ "type": "Feature", "properties": { "street_name": "Am Brückenholz" }, "geometry": { "type": "Point", "coordinates": [ 11.760773599387345, 51.209515708536046 ] } },
{ "type": "Feature", "properties": { "street_name": "Am Brühl" }, "geometry": { "type": "Point", "coordinates": [ 12.107613319704203, 51.203729740536836 ] } },
{ "type": "Feature", "properties": { "street_name": "Am Brunnen" }, "geometry": { "type": "Point", "coordinates": [ 11.856909441841518, 51.180589891297195 ] } },
{ "type": "Feature", "properties": { "street_name": "Am Burgberg" }, "geometry": { "type": "Point", "coordinates": [ 11.699526307346513, 51.110821577264907 ] } },
{ "type": "Feature", "properties": { "street_name": "Am Burgstädtl" }, "geometry": { "type": "Point", "coordinates": [ 12.090089142109045, 51.155710113576689 ] } },
{ "type": "Feature", "properties": { "street_name": "Am Burgweg" }, "geometry": { "type": "Point", "coordinates": [ 11.562519871314658, 51.121747221483396 ] } },
{ "type": "Feature", "properties": { "street_name": "Am Denkmal" }, "geometry": { "type": "Point", "coordinates": [ 11.883738970578458, 51.235830996311726 ] } },
{ "type": "Feature", "properties": { "street_name": "Am der Appelwiese" }, "geometry": { "type": "Point", "coordinates": [ 11.917476848656127, 51.153356263086039 ] } },
{ "type": "Feature", "properties": { "street_name": "Am Dietzenhügel" }, "geometry": { "type": "Point", "coordinates": [ 11.66860652670678, 51.221915027595443 ] } },
{ "type": "Feature", "properties": { "street_name": "Am Domgarten" }, "geometry": { "type": "Point", "coordinates": [ 12.080130173245497, 51.215109819389987 ] } },
{ "type": "Feature", "properties": { "street_name": "Am Dorfplatz" }, "geometry": { "type": "Point", "coordinates": [ 12.140625198682534, 51.217997082234021 ] } },
{ "type": "Feature", "properties": { "street_name": "Am Dorfteich" }, "geometry": { "type": "Point", "coordinates": [ 11.672881250772212, 51.105124970189387 ] } },
{ "type": "Feature", "properties": { "street_name": "Am Eichberg" }, "geometry": { "type": "Point", "coordinates": [ 11.929818491923829, 51.199763808784368 ] } },
{ "type": "Feature", "properties": { "street_name": "Am Elsterhang" }, "geometry": { "type": "Point", "coordinates": [ 12.116482091075188, 51.041220495492269 ] } },
{ "type": "Feature", "properties": { "street_name": "Am Ententeich" }, "geometry": { "type": "Point", "coordinates": [ 11.775137756142115, 51.225720725165971 ] } },
{ "type": "Feature", "properties": { "street_name": "Am Eulengrund" }, "geometry": { "type": "Point", "coordinates": [ 12.122920782915644, 51.040671008474334 ] } },
{ "type": "Feature", "properties": { "street_name": "Am Felde" }, "geometry": { "type": "Point", "coordinates": [ 12.027458600966604, 51.270200701216822 ] } },
{ "type": "Feature", "properties": { "street_name": "Am Feldrain" }, "geometry": { "type": "Point", "coordinates": [ 11.981656050971409, 51.226594000071835 ] } },
{ "type": "Feature", "properties": { "street_name": "Am Felsenkeller" }, "geometry": { "type": "Point", "coordinates": [ 11.981354483071305, 51.217341719760292 ] } },
{ "type": "Feature", "properties": { "street_name": "Am Fischhaus" }, "geometry": { "type": "Point", "coordinates": [ 11.750182210003937, 51.147346330336639 ] } },
{ "type": "Feature", "properties": { "street_name": "Am Fleischerberg" }, "geometry": { "type": "Point", "coordinates": [ 11.997283303091182, 51.10138785303004 ] } },
{ "type": "Feature", "properties": { "street_name": "Am Flemminger Anger" }, "geometry": { "type": "Point", "coordinates": [ 11.768666449131644, 51.13473000011841 ] } },
{ "type": "Feature", "properties": { "street_name": "Am Fliederbusch" }, "geometry": { "type": "Point", "coordinates": [ 12.059261449198367, 51.13796005017857 ] } },
{ "type": "Feature", "properties": { "street_name": "Am Floßgraben" }, "geometry": { "type": "Point", "coordinates": [ 12.179691162674208, 51.102976040077941 ] } },
{ "type": "Feature", "properties": { "street_name": "Am Flugplatz" }, "geometry": { "type": "Point", "coordinates": [ 11.692219149009816, 51.243127364936818 ] } },
{ "type": "Feature", "properties": { "street_name": "Am Forsthaus" }, "geometry": { "type": "Point", "coordinates": [ 11.959367600441377, 51.203484000081509 ] } },
{ "type": "Feature", "properties": { "street_name": "Am Frauenholze" }, "geometry": { "type": "Point", "coordinates": [ 11.931102246418545, 51.180022729434057 ] } },
{ "type": "Feature", "properties": { "street_name": "Am Friedhof" }, "geometry": { "type": "Point", "coordinates": [ 12.234795666438323, 50.995271291932056 ] } },
{ "type": "Feature", "properties": { "street_name": "Am Fuchsberg" }, "geometry": { "type": "Point", "coordinates": [ 12.098595708951663, 51.152841694484884 ] } },
{ "type": "Feature", "properties": { "street_name": "Am Galgenberg" }, "geometry": { "type": "Point", "coordinates": [ 11.72893882312866, 51.134940627674723 ] } },
{ "type": "Feature", "properties": { "street_name": "Am Gartenweg" }, "geometry": { "type": "Point", "coordinates": [ 11.805574726913758, 51.101636664633396 ] } },
{ "type": "Feature", "properties": { "street_name": "Am Gebhadts" }, "geometry": { "type": "Point", "coordinates": [ 11.584291647509639, 51.189582757440377 ] } },
{ "type": "Feature", "properties": { "street_name": "Am Geiersberg" }, "geometry": { "type": "Point", "coordinates": [ 12.278243599290411, 51.015583069134259 ] } },
{ "type": "Feature", "properties": { "street_name": "Am Georgenberg" }, "geometry": { "type": "Point", "coordinates": [ 11.799958756471142, 51.156288444987773 ] } },
{ "type": "Feature", "properties": { "street_name": "Am Georgentor" }, "geometry": { "type": "Point", "coordinates": [ 11.800475244433667, 51.156617667740711 ] } },
{ "type": "Feature", "properties": { "street_name": "Am Gerberstein" }, "geometry": { "type": "Point", "coordinates": [ 11.832680257740801, 51.154759640565615 ] } },
{ "type": "Feature", "properties": { "street_name": "Am Gerichtskeller" }, "geometry": { "type": "Point", "coordinates": [ 11.77042420280517, 51.211430778736414 ] } },
{ "type": "Feature", "properties": { "street_name": "Am Gerstewitzer Anger" }, "geometry": { "type": "Point", "coordinates": [ 12.03548544731453, 51.191201868133113 ] } },
{ "type": "Feature", "properties": { "street_name": "Am Gewende" }, "geometry": { "type": "Point", "coordinates": [ 11.673473700231998, 51.218932702789381 ] } },
{ "type": "Feature", "properties": { "street_name": "Am Gewerbepark" }, "geometry": { "type": "Point", "coordinates": [ 11.759646748047397, 51.222120521733402 ] } },
{ "type": "Feature", "properties": { "street_name": "Am Geyersberg" }, "geometry": { "type": "Point", "coordinates": [ 12.280004535818762, 51.008775066796723 ] } },
{ "type": "Feature", "properties": { "street_name": "Am Glockenberg" }, "geometry": { "type": "Point", "coordinates": [ 12.049556354968415, 51.20429705282951 ] } },
{ "type": "Feature", "properties": { "street_name": "Am Göbitzer Teich" }, "geometry": { "type": "Point", "coordinates": [ 12.186949147367542, 51.086394130097929 ] } },
{ "type": "Feature", "properties": { "street_name": "Am Gotthardsberg" }, "geometry": { "type": "Point", "coordinates": [ 11.946203135350531, 51.215849273938019 ] } },
{ "type": "Feature", "properties": { "street_name": "Am Grazilbach" }, "geometry": { "type": "Point", "coordinates": [ 12.057794497311052, 51.072233497858029 ] } },
{ "type": "Feature", "properties": { "street_name": "Am Großen Teich" }, "geometry": { "type": "Point", "coordinates": [ 11.751676050820594, 51.182115869587697 ] } },
{ "type": "Feature", "properties": { "street_name": "Am Grundhof" }, "geometry": { "type": "Point", "coordinates": [ 12.191884949147308, 51.030641909025718 ] } },
{ "type": "Feature", "properties": { "street_name": "Am Gut" }, "geometry": { "type": "Point", "coordinates": [ 11.925236000985658, 51.226498962859282 ] } },
{ "type": "Feature", "properties": { "street_name": "Am Güterbahnhof" }, "geometry": { "type": "Point", "coordinates": [ 12.139452442772532, 51.061925429992812 ] } },
{ "type": "Feature", "properties": { "street_name": "Am Gutschbach" }, "geometry": { "type": "Point", "coordinates": [ 11.583347680361024, 51.189740833762073 ] } },
{ "type": "Feature", "properties": { "street_name": "Am Gutshaus" }, "geometry": { "type": "Point", "coordinates": [ 11.477561842539796, 51.197321839796608 ] } },
{ "type": "Feature", "properties": { "street_name": "Am Gutshof" }, "geometry": { "type": "Point", "coordinates": [ 11.675159663000915, 51.105273780073041 ] } },
{ "type": "Feature", "properties": { "street_name": "Am Gymnasium" }, "geometry": { "type": "Point", "coordinates": [ 12.030065243910316, 51.262129012561793 ] } },
{ "type": "Feature", "properties": { "street_name": "Am Hamsterteich" }, "geometry": { "type": "Point", "coordinates": [ 11.889398888432453, 51.087717385366133 ] } },
{ "type": "Feature", "properties": { "street_name": "Am Hasselteich" }, "geometry": { "type": "Point", "coordinates": [ 12.006114042771852, 51.041069752018224 ] } },
{ "type": "Feature", "properties": { "street_name": "Am Haus Sonneck" }, "geometry": { "type": "Point", "coordinates": [ 12.022688199220985, 51.042983450121284 ] } },
{ "type": "Feature", "properties": { "street_name": "Am Hausberg" }, "geometry": { "type": "Point", "coordinates": [ 12.024678976279676, 51.23252207999181 ] } },
{ "type": "Feature", "properties": { "street_name": "Am Heckenborn" }, "geometry": { "type": "Point", "coordinates": [ 12.076066175600298, 51.002284725501525 ] } },
{ "type": "Feature", "properties": { "street_name": "Am Heerweg" }, "geometry": { "type": "Point", "coordinates": [ 12.077840154652709, 51.224683247450109 ] } },
{ "type": "Feature", "properties": { "street_name": "Am Hegberg" }, "geometry": { "type": "Point", "coordinates": [ 12.09480706529518, 51.141903094055813 ] } },
{ "type": "Feature", "properties": { "street_name": "Am Heidestock" }, "geometry": { "type": "Point", "coordinates": [ 12.057584449658101, 51.138592450078342 ] } },
{ "type": "Feature", "properties": { "street_name": "Am Hermsdorfer Anger" }, "geometry": { "type": "Point", "coordinates": [ 12.153893302129681, 50.96223587770416 ] } },
{ "type": "Feature", "properties": { "street_name": "Am Herrenberg" }, "geometry": { "type": "Point", "coordinates": [ 11.959104310000857, 51.214957368270596 ] } },
{ "type": "Feature", "properties": { "street_name": "Am Herrmannschacht" }, "geometry": { "type": "Point", "coordinates": [ 12.107751202529077, 51.055092477224775 ] } },
{ "type": "Feature", "properties": { "street_name": "Am Hirtenberg" }, "geometry": { "type": "Point", "coordinates": [ 12.0926920555591, 51.16262897386985 ] } },
{ "type": "Feature", "properties": { "street_name": "Am Hochheim" }, "geometry": { "type": "Point", "coordinates": [ 11.961920507132588, 51.18535805211306 ] } },
{ "type": "Feature", "properties": { "street_name": "Am Hofteich" }, "geometry": { "type": "Point", "coordinates": [ 11.936301012190068, 51.036896569348578 ] } },
{ "type": "Feature", "properties": { "street_name": "Am Hohen Stein" }, "geometry": { "type": "Point", "coordinates": [ 11.828429296248821, 51.142198368087335 ] } },
{ "type": "Feature", "properties": { "street_name": "Am Hohlenweg" }, "geometry": { "type": "Point", "coordinates": [ 11.706547529544654, 51.141922530635163 ] } },
{ "type": "Feature", "properties": { "street_name": "Am Holländer" }, "geometry": { "type": "Point", "coordinates": [ 12.028993305262032, 51.264369594937669 ] } },
{ "type": "Feature", "properties": { "street_name": "Am Hölzchen" }, "geometry": { "type": "Point", "coordinates": [ 12.058411090315946, 51.137874264356007 ] } },
{ "type": "Feature", "properties": { "street_name": "Am Hügel" }, "geometry": { "type": "Point", "coordinates": [ 12.102254590385451, 51.151951559106479 ] } },
{ "type": "Feature", "properties": { "street_name": "Am Jägersberg" }, "geometry": { "type": "Point", "coordinates": [ 12.029087447583837, 51.226424860286564 ] } },
{ "type": "Feature", "properties": { "street_name": "Am Jakobsweg" }, "geometry": { "type": "Point", "coordinates": [ 11.880248259318025, 51.23650647819764 ] } },
{ "type": "Feature", "properties": { "street_name": "Am Kalktor" }, "geometry": { "type": "Point", "coordinates": [ 12.138400275638272, 51.047260583367915 ] } },
{ "type": "Feature", "properties": { "street_name": "Am Kalkwerk" }, "geometry": { "type": "Point", "coordinates": [ 11.59321774729662, 51.206906340444654 ] } },
{ "type": "Feature", "properties": { "street_name": "Am Kalten Hasen" }, "geometry": { "type": "Point", "coordinates": [ 11.571940561516989, 51.236216305188186 ] } },
{ "type": "Feature", "properties": { "street_name": "Am Kalten Hügel" }, "geometry": { "type": "Point", "coordinates": [ 11.794424927433731, 51.144279481643714 ] } },
{ "type": "Feature", "properties": { "street_name": "Am Kalten Tal" }, "geometry": { "type": "Point", "coordinates": [ 11.784409514684832, 51.150968450310486 ] } },
{ "type": "Feature", "properties": { "street_name": "Am Kämmereihölzchen" }, "geometry": { "type": "Point", "coordinates": [ 11.955759864925263, 51.199621096036005 ] } },
{ "type": "Feature", "properties": { "street_name": "Am Kastanienplatz" }, "geometry": { "type": "Point", "coordinates": [ 11.480118475951965, 51.116938183713771 ] } },
{ "type": "Feature", "properties": { "street_name": "Am Katerholz" }, "geometry": { "type": "Point", "coordinates": [ 11.99940196807327, 51.006785409837335 ] } },
{ "type": "Feature", "properties": { "street_name": "Am Katzenberg" }, "geometry": { "type": "Point", "coordinates": [ 12.069888799740186, 51.141289486763952 ] } },
{ "type": "Feature", "properties": { "street_name": "Am Kessel" }, "geometry": { "type": "Point", "coordinates": [ 12.028344663255453, 51.22447152615603 ] } },
{ "type": "Feature", "properties": { "street_name": "Am Kiefernberg" }, "geometry": { "type": "Point", "coordinates": [ 12.02216716662585, 51.044222484510911 ] } },
{ "type": "Feature", "properties": { "street_name": "Am Kirchberg" }, "geometry": { "type": "Point", "coordinates": [ 11.856658129471906, 51.136933557723353 ] } },
{ "type": "Feature", "properties": { "street_name": "Am Kirchhof" }, "geometry": { "type": "Point", "coordinates": [ 12.215538006155683, 51.126082976566416 ] } },
{ "type": "Feature", "properties": { "street_name": "Am Kirchwinkel" }, "geometry": { "type": "Point", "coordinates": [ 11.949469759849075, 51.237989594757494 ] } },
{ "type": "Feature", "properties": { "street_name": "Am Kirschberg" }, "geometry": { "type": "Point", "coordinates": [ 11.743417167998377, 51.214380402020119 ] } },
{ "type": "Feature", "properties": { "street_name": "Am Klefferbach" }, "geometry": { "type": "Point", "coordinates": [ 11.444617578895679, 51.24146098083898 ] } },
{ "type": "Feature", "properties": { "street_name": "Am Kleinen Teich" }, "geometry": { "type": "Point", "coordinates": [ 11.752088588209032, 51.180288400867965 ] } },
{ "type": "Feature", "properties": { "street_name": "Am Klemmberg" }, "geometry": { "type": "Point", "coordinates": [ 11.981413611079569, 51.201422283003751 ] } },
{ "type": "Feature", "properties": { "street_name": "Am Kloster" }, "geometry": { "type": "Point", "coordinates": [ 11.96836425253812, 51.200053120566203 ] } },
{ "type": "Feature", "properties": { "street_name": "Am Klostergut" }, "geometry": { "type": "Point", "coordinates": [ 11.963129453321693, 51.182479897514867 ] } },
{ "type": "Feature", "properties": { "street_name": "Am Krähenberg" }, "geometry": { "type": "Point", "coordinates": [ 12.016861653959092, 51.125840664330802 ] } },
{ "type": "Feature", "properties": { "street_name": "Am Krug" }, "geometry": { "type": "Point", "coordinates": [ 11.96150917744337, 51.190152804289454 ] } },
{ "type": "Feature", "properties": { "street_name": "Am Küchengarten" }, "geometry": { "type": "Point", "coordinates": [ 11.980380556661604, 51.197985631591244 ] } },
{ "type": "Feature", "properties": { "street_name": "Am Küchenteich" }, "geometry": { "type": "Point", "coordinates": [ 11.46144024638, 51.244837100292322 ] } },
{ "type": "Feature", "properties": { "street_name": "Am Kugelberg" }, "geometry": { "type": "Point", "coordinates": [ 11.972119173767611, 51.193307797343323 ] } },
{ "type": "Feature", "properties": { "street_name": "Am Kulturhaus" }, "geometry": { "type": "Point", "coordinates": [ 11.919836577732173, 51.154324827661206 ] } },
{ "type": "Feature", "properties": { "street_name": "Am Kunstgestänge" }, "geometry": { "type": "Point", "coordinates": [ 11.722369802754899, 51.135844305824726 ] } },
{ "type": "Feature", "properties": { "street_name": "Am langen Weinberg" }, "geometry": { "type": "Point", "coordinates": [ 11.877222151985832, 51.194049412620593 ] } },
{ "type": "Feature", "properties": { "street_name": "Am Langgarten" }, "geometry": { "type": "Point", "coordinates": [ 12.084308741138514, 51.139640458326063 ] } },
{ "type": "Feature", "properties": { "street_name": "Am Lassalleweg" }, "geometry": { "type": "Point", "coordinates": [ 11.992596210077583, 51.21253979956429 ] } },
{ "type": "Feature", "properties": { "street_name": "Am Lauschehügel" }, "geometry": { "type": "Point", "coordinates": [ 11.821430853931435, 51.14640790735632 ] } },
{ "type": "Feature", "properties": { "street_name": "Am Leihdenberg" }, "geometry": { "type": "Point", "coordinates": [ 11.776193350166652, 51.171068550086495 ] } },
{ "type": "Feature", "properties": { "street_name": "Am Lerchenfeld" }, "geometry": { "type": "Point", "coordinates": [ 12.019371947211505, 51.038725575695373 ] } },
{ "type": "Feature", "properties": { "street_name": "Am Lohberg" }, "geometry": { "type": "Point", "coordinates": [ 11.654996857159976, 51.244068595341183 ] } },
{ "type": "Feature", "properties": { "street_name": "Am Marktstieg" }, "geometry": { "type": "Point", "coordinates": [ 11.738433288734738, 51.204197953704018 ] } },
{ "type": "Feature", "properties": { "street_name": "Am Marktwege" }, "geometry": { "type": "Point", "coordinates": [ 11.925722805456406, 51.185307580974978 ] } },
{ "type": "Feature", "properties": { "street_name": "Am Maßnitzer Teich" }, "geometry": { "type": "Point", "coordinates": [ 12.167603793743623, 51.075767081941045 ] } },
{ "type": "Feature", "properties": { "street_name": "Am Meierhof" }, "geometry": { "type": "Point", "coordinates": [ 12.057181853132766, 51.063274114331662 ] } },
{ "type": "Feature", "properties": { "street_name": "Am Meisel" }, "geometry": { "type": "Point", "coordinates": [ 11.776729836354717, 51.170844211039153 ] } },
{ "type": "Feature", "properties": { "street_name": "Am Michaelisholz" }, "geometry": { "type": "Point", "coordinates": [ 11.776630510002116, 51.13909878483269 ] } },
{ "type": "Feature", "properties": { "street_name": "Am Mittelplan" }, "geometry": { "type": "Point", "coordinates": [ 11.983511345709516, 51.225029353657014 ] } },
{ "type": "Feature", "properties": { "street_name": "Am Mühlbach" }, "geometry": { "type": "Point", "coordinates": [ 11.581688043843293, 51.194054145588446 ] } },
{ "type": "Feature", "properties": { "street_name": "Am Mühlberg" }, "geometry": { "type": "Point", "coordinates": [ 11.962427459007793, 51.207108752166995 ] } },
{ "type": "Feature", "properties": { "street_name": "Am Mühlengrund" }, "geometry": { "type": "Point", "coordinates": [ 11.449155049975285, 51.241896600000267 ] } },
{ "type": "Feature", "properties": { "street_name": "Am Mühlenweg" }, "geometry": { "type": "Point", "coordinates": [ 12.156843855305009, 51.076245235268892 ] } },
{ "type": "Feature", "properties": { "street_name": "Am Mühlgraben" }, "geometry": { "type": "Point", "coordinates": [ 12.130771302889137, 51.051393898749616 ] } },
{ "type": "Feature", "properties": { "street_name": "Am Mühlplatz" }, "geometry": { "type": "Point", "coordinates": [ 11.441823912019167, 51.241113440005215 ] } },
{ "type": "Feature", "properties": { "street_name": "Am Mühlrain" }, "geometry": { "type": "Point", "coordinates": [ 11.980162975674393, 51.223883616541251 ] } },
{ "type": "Feature", "properties": { "street_name": "Am Naturbad" }, "geometry": { "type": "Point", "coordinates": [ 12.210719679632577, 51.057672906720647 ] } },
{ "type": "Feature", "properties": { "street_name": "Am neuen Sportplatz" }, "geometry": { "type": "Point", "coordinates": [ 11.577649448566392, 51.291432614892642 ] } },
{ "type": "Feature", "properties": { "street_name": "Am Nicolausholz" }, "geometry": { "type": "Point", "coordinates": [ 11.711818689012143, 51.135029494227311 ] } },
{ "type": "Feature", "properties": { "street_name": "Am Niederholz" }, "geometry": { "type": "Point", "coordinates": [ 12.174383232295433, 51.090756602576114 ] } },
{ "type": "Feature", "properties": { "street_name": "Am Ochsenberg" }, "geometry": { "type": "Point", "coordinates": [ 12.241642480954397, 50.995060076967356 ] } },
{ "type": "Feature", "properties": { "street_name": "Am Ohrauberg" }, "geometry": { "type": "Point", "coordinates": [ 11.530764374337652, 51.128267428242694 ] } },
{ "type": "Feature", "properties": { "street_name": "Am Ölberg" }, "geometry": { "type": "Point", "coordinates": [ 11.544910851530176, 51.273208828202087 ] } },
{ "type": "Feature", "properties": { "street_name": "Am Ostbahnhof" }, "geometry": { "type": "Point", "coordinates": [ 11.823333679982845, 51.155259557090098 ] } },
{ "type": "Feature", "properties": { "street_name": "Am Park" }, "geometry": { "type": "Point", "coordinates": [ 12.100382951639032, 51.085033019081642 ] } },
{ "type": "Feature", "properties": { "street_name": "Am Pflegestützpunkt" }, "geometry": { "type": "Point", "coordinates": [ 11.991160149200923, 51.07494630229592 ] } },
{ "type": "Feature", "properties": { "street_name": "Am Plan" }, "geometry": { "type": "Point", "coordinates": [ 11.658016288046989, 51.245165371508328 ] } },
{ "type": "Feature", "properties": { "street_name": "Am Pöllnitzgraben" }, "geometry": { "type": "Point", "coordinates": [ 11.868531760250182, 51.158533390862104 ] } },
{ "type": "Feature", "properties": { "street_name": "Am Predel" }, "geometry": { "type": "Point", "coordinates": [ 12.032595936039327, 51.043055362979089 ] } },
{ "type": "Feature", "properties": { "street_name": "Am Profener Anger" }, "geometry": { "type": "Point", "coordinates": [ 12.218923197321796, 51.126186797652871 ] } },
{ "type": "Feature", "properties": { "street_name": "Am Rauschenbach" }, "geometry": { "type": "Point", "coordinates": [ 12.01585430026822, 50.997654300015775 ] } },
{ "type": "Feature", "properties": { "street_name": "Am Rechenberg" }, "geometry": { "type": "Point", "coordinates": [ 11.725547482648793, 51.134268355829882 ] } },
{ "type": "Feature", "properties": { "street_name": "Am Rehbach" }, "geometry": { "type": "Point", "coordinates": [ 11.519732432833557, 51.135494129945585 ] } },
{ "type": "Feature", "properties": { "street_name": "Am Rippachtal" }, "geometry": { "type": "Point", "coordinates": [ 12.095137845159156, 51.147578685478038 ] } },
{ "type": "Feature", "properties": { "street_name": "Am Rittergut" }, "geometry": { "type": "Point", "coordinates": [ 12.176446121158158, 51.245816264837366 ] } },
{ "type": "Feature", "properties": { "street_name": "Am Rödel" }, "geometry": { "type": "Point", "coordinates": [ 11.761911772048792, 51.208955860364817 ] } },
{ "type": "Feature", "properties": { "street_name": "Am Rosengarten" }, "geometry": { "type": "Point", "coordinates": [ 12.060059743317654, 51.137619806102471 ] } },
{ "type": "Feature", "properties": { "street_name": "Am Rosenhain" }, "geometry": { "type": "Point", "coordinates": [ 11.593827736470018, 51.150228584980212 ] } },
{ "type": "Feature", "properties": { "street_name": "Am Rosenweg" }, "geometry": { "type": "Point", "coordinates": [ 12.034401839972311, 51.193585863003207 ] } },
{ "type": "Feature", "properties": { "street_name": "Am Roten Weg" }, "geometry": { "type": "Point", "coordinates": [ 11.776425600059207, 51.181533350002617 ] } },
{ "type": "Feature", "properties": { "street_name": "Am Saaleblick" }, "geometry": { "type": "Point", "coordinates": [ 11.934032911172313, 51.201740264780788 ] } },
{ "type": "Feature", "properties": { "street_name": "Am Saaleck" }, "geometry": { "type": "Point", "coordinates": [ 11.70029116875191, 51.112180776789685 ] } },
{ "type": "Feature", "properties": { "street_name": "Am Sachsenberg" }, "geometry": { "type": "Point", "coordinates": [ 12.00316529837864, 50.999742379252766 ] } },
{ "type": "Feature", "properties": { "street_name": "Am Salztor" }, "geometry": { "type": "Point", "coordinates": [ 11.805138150072771, 51.14997390010118 ] } },
{ "type": "Feature", "properties": { "street_name": "Am Sandberg" }, "geometry": { "type": "Point", "coordinates": [ 12.107087533354804, 51.079863893987017 ] } },
{ "type": "Feature", "properties": { "street_name": "Am Saubach" }, "geometry": { "type": "Point", "coordinates": [ 11.580608311803044, 51.20665664974814 ] } },
{ "type": "Feature", "properties": { "street_name": "Am Sausenhölzchen" }, "geometry": { "type": "Point", "coordinates": [ 11.972579675547157, 51.196169956361047 ] } },
{ "type": "Feature", "properties": { "street_name": "Am Schacht" }, "geometry": { "type": "Point", "coordinates": [ 11.556106083407283, 51.266362525256099 ] } },
{ "type": "Feature", "properties": { "street_name": "Am Schkortelbach" }, "geometry": { "type": "Point", "coordinates": [ 12.01537570031187, 51.241148491031673 ] } },
{ "type": "Feature", "properties": { "street_name": "Am Schlachthof" }, "geometry": { "type": "Point", "coordinates": [ 11.976487400805938, 51.213917018902436 ] } },
{ "type": "Feature", "properties": { "street_name": "Am Schloß" }, "geometry": { "type": "Point", "coordinates": [ 11.734572500271154, 51.20626625004035 ] } },
{ "type": "Feature", "properties": { "street_name": "Am Schloßhof" }, "geometry": { "type": "Point", "coordinates": [ 12.152227408824295, 50.966107418617831 ] } },
{ "type": "Feature", "properties": { "street_name": "Am Schlossteich" }, "geometry": { "type": "Point", "coordinates": [ 11.610644150555267, 51.16225604985754 ] } },
{ "type": "Feature", "properties": { "street_name": "Am Schmiedeberg" }, "geometry": { "type": "Point", "coordinates": [ 12.067300283245689, 51.018928201167988 ] } },
{ "type": "Feature", "properties": { "street_name": "Am Schmiedestück" }, "geometry": { "type": "Point", "coordinates": [ 11.884475336373717, 51.089184865288964 ] } },
{ "type": "Feature", "properties": { "street_name": "Am Schmiedeweg" }, "geometry": { "type": "Point", "coordinates": [ 11.584523464912474, 51.211218860344566 ] } },
{ "type": "Feature", "properties": { "street_name": "Am Schulplatz" }, "geometry": { "type": "Point", "coordinates": [ 11.642034368025749, 51.245097968189945 ] } },
{ "type": "Feature", "properties": { "street_name": "Am Schützenplatz" }, "geometry": { "type": "Point", "coordinates": [ 11.977211148827319, 51.195565150227111 ] } },
{ "type": "Feature", "properties": { "street_name": "Am Schwanenteich" }, "geometry": { "type": "Point", "coordinates": [ 12.131582726163579, 51.044090371992546 ] } },
{ "type": "Feature", "properties": { "street_name": "Am Schwimmbad" }, "geometry": { "type": "Point", "coordinates": [ 11.602339618241345, 51.214483334345985 ] } },
{ "type": "Feature", "properties": { "street_name": "Am See" }, "geometry": { "type": "Point", "coordinates": [ 12.081102554415482, 51.063954292840741 ] } },
{ "type": "Feature", "properties": { "street_name": "Am Solarpark" }, "geometry": { "type": "Point", "coordinates": [ 11.972311084686424, 51.246139499394893 ] } },
{ "type": "Feature", "properties": { "street_name": "Am Solschacht" }, "geometry": { "type": "Point", "coordinates": [ 11.722074326471223, 51.135141910876925 ] } },
{ "type": "Feature", "properties": { "street_name": "Am Sonnenberg" }, "geometry": { "type": "Point", "coordinates": [ 11.633236784603243, 51.204643738371821 ] } },
{ "type": "Feature", "properties": { "street_name": "Am Speicher" }, "geometry": { "type": "Point", "coordinates": [ 11.990469006431514, 51.074003688341996 ] } },
{ "type": "Feature", "properties": { "street_name": "Am Spielplatz" }, "geometry": { "type": "Point", "coordinates": [ 11.789145799868971, 51.188930300044341 ] } },
{ "type": "Feature", "properties": { "street_name": "Am Sportplatz" }, "geometry": { "type": "Point", "coordinates": [ 12.073595397282224, 51.175827466339094 ] } },
{ "type": "Feature", "properties": { "street_name": "Am Stadion" }, "geometry": { "type": "Point", "coordinates": [ 12.019912866654504, 51.116383444904891 ] } },
{ "type": "Feature", "properties": { "street_name": "Am Stadtberg" }, "geometry": { "type": "Point", "coordinates": [ 11.976983980965192, 51.188299156618214 ] } },
{ "type": "Feature", "properties": { "street_name": "Am Stadtfeld" }, "geometry": { "type": "Point", "coordinates": [ 11.674882550086497, 51.221858850806811 ] } },
{ "type": "Feature", "properties": { "street_name": "Am Stadtpark" }, "geometry": { "type": "Point", "coordinates": [ 11.972364197153608, 51.197010117392743 ] } },
{ "type": "Feature", "properties": { "street_name": "Am Steinbach" }, "geometry": { "type": "Point", "coordinates": [ 11.580080899738904, 51.197779500136548 ] } },
{ "type": "Feature", "properties": { "street_name": "Am Steinberg" }, "geometry": { "type": "Point", "coordinates": [ 12.132151813133998, 51.187193644705843 ] } },
{ "type": "Feature", "properties": { "street_name": "Am Steinhof" }, "geometry": { "type": "Point", "coordinates": [ 11.984632250912501, 51.193014950223386 ] } },
{ "type": "Feature", "properties": { "street_name": "Am Stockberg" }, "geometry": { "type": "Point", "coordinates": [ 11.927964219864316, 51.115537834362485 ] } },
{ "type": "Feature", "properties": { "street_name": "Am Storchennest" }, "geometry": { "type": "Point", "coordinates": [ 11.945405145575004, 51.203398422381333 ] } },
{ "type": "Feature", "properties": { "street_name": "Am Stößner Weg" }, "geometry": { "type": "Point", "coordinates": [ 11.906417037585957, 51.112642294429584 ] } },
{ "type": "Feature", "properties": { "street_name": "Am Tagebau" }, "geometry": { "type": "Point", "coordinates": [ 12.113087849630052, 51.078582050360836 ] } },
{ "type": "Feature", "properties": { "street_name": "Am Teich" }, "geometry": { "type": "Point", "coordinates": [ 12.251913777418132, 51.076095541973153 ] } },
{ "type": "Feature", "properties": { "street_name": "Am Tempelteich" }, "geometry": { "type": "Point", "coordinates": [ 12.026727615835187, 51.040599752271397 ] } },
{ "type": "Feature", "properties": { "street_name": "Am Tennisplatz" }, "geometry": { "type": "Point", "coordinates": [ 11.810636669072032, 51.140382439410885 ] } },
{ "type": "Feature", "properties": { "street_name": "Am Teucherberg" }, "geometry": { "type": "Point", "coordinates": [ 12.101114870696659, 50.999170837857662 ] } },
{ "type": "Feature", "properties": { "street_name": "Am Tschirnhügel" }, "geometry": { "type": "Point", "coordinates": [ 12.000581863888387, 51.220125161228616 ] } },
{ "type": "Feature", "properties": { "street_name": "Am Veilchenweg" }, "geometry": { "type": "Point", "coordinates": [ 12.058413549594034, 51.138250900092572 ] } },
{ "type": "Feature", "properties": { "street_name": "Am Vogelherd" }, "geometry": { "type": "Point", "coordinates": [ 11.474292249932917, 51.213952000045779 ] } },
{ "type": "Feature", "properties": { "street_name": "Am Vollert" }, "geometry": { "type": "Point", "coordinates": [ 12.0506810313116, 51.105433842158561 ] } },
{ "type": "Feature", "properties": { "street_name": "Am Wachhügel" }, "geometry": { "type": "Point", "coordinates": [ 11.952245451394859, 51.243176980803945 ] } },
{ "type": "Feature", "properties": { "street_name": "Am Wald" }, "geometry": { "type": "Point", "coordinates": [ 11.85233614351262, 51.132324908097097 ] } },
{ "type": "Feature", "properties": { "street_name": "Am Waldbad" }, "geometry": { "type": "Point", "coordinates": [ 11.916573356232634, 51.185872744700369 ] } },
{ "type": "Feature", "properties": { "street_name": "Am Wäldchen" }, "geometry": { "type": "Point", "coordinates": [ 12.077751314137092, 51.217036366917 ] } },
{ "type": "Feature", "properties": { "street_name": "Am Wasserturm" }, "geometry": { "type": "Point", "coordinates": [ 12.129998009881028, 50.994796801022233 ] } },
{ "type": "Feature", "properties": { "street_name": "Am Weg zum Terrassencafe" }, "geometry": { "type": "Point", "coordinates": [ 11.91842267756771, 51.183933247950286 ] } },
{ "type": "Feature", "properties": { "street_name": "Am Weidenweg" }, "geometry": { "type": "Point", "coordinates": [ 11.464444013696042, 51.27524089008304 ] } },
{ "type": "Feature", "properties": { "street_name": "Am Weinberg" }, "geometry": { "type": "Point", "coordinates": [ 12.105900288117159, 51.150461538563874 ] } },
{ "type": "Feature", "properties": { "street_name": "Am Weinberge" }, "geometry": { "type": "Point", "coordinates": [ 11.939106516777404, 51.084856233798384 ] } },
{ "type": "Feature", "properties": { "street_name": "Am Wendehammer" }, "geometry": { "type": "Point", "coordinates": [ 12.102148738421715, 51.158299094442306 ] } },
{ "type": "Feature", "properties": { "street_name": "Am Werk" }, "geometry": { "type": "Point", "coordinates": [ 12.066408516751229, 51.167575631179638 ] } },
{ "type": "Feature", "properties": { "street_name": "Am Wiesengrund" }, "geometry": { "type": "Point", "coordinates": [ 12.119583801265998, 51.040138403990909 ] } },
{ "type": "Feature", "properties": { "street_name": "Am Winkelweg" }, "geometry": { "type": "Point", "coordinates": [ 11.592901554494572, 51.212242542430701 ] } },
{ "type": "Feature", "properties": { "street_name": "Am Zeiselberg" }, "geometry": { "type": "Point", "coordinates": [ 11.980214429151845, 51.217014296635426 ] } },
{ "type": "Feature", "properties": { "street_name": "Am Ziegelgraben" }, "geometry": { "type": "Point", "coordinates": [ 11.802701996153148, 51.143094236128654 ] } },
{ "type": "Feature", "properties": { "street_name": "Am Zuckerberg" }, "geometry": { "type": "Point", "coordinates": [ 11.834385435339088, 51.154270214145363 ] } },
{ "type": "Feature", "properties": { "street_name": "Amsdorfstraße" }, "geometry": { "type": "Point", "coordinates": [ 11.825983835465761, 51.153514849147221 ] } },
{ "type": "Feature", "properties": { "street_name": "Amselgesang" }, "geometry": { "type": "Point", "coordinates": [ 11.738462847714677, 51.199555396402502 ] } },
{ "type": "Feature", "properties": { "street_name": "Amselweg" }, "geometry": { "type": "Point", "coordinates": [ 11.949676732118467, 51.244769311873021 ] } },
{ "type": "Feature", "properties": { "street_name": "An der alten Mittelstraße" }, "geometry": { "type": "Point", "coordinates": [ 12.030128474054022, 51.191889040960561 ] } },
{ "type": "Feature", "properties": { "street_name": "An der Freyburger Straße" }, "geometry": { "type": "Point", "coordinates": [ 11.737689750061701, 51.216424500044809 ] } },
{ "type": "Feature", "properties": { "street_name": "An der Poststraße" }, "geometry": { "type": "Point", "coordinates": [ 11.586867926802054, 51.150007629678491 ] } },
{ "type": "Feature", "properties": { "street_name": "An der Weinstraße" }, "geometry": { "type": "Point", "coordinates": [ 11.735055315194765, 51.217091520542432 ] } },
{ "type": "Feature", "properties": { "street_name": "An der Zeitzer Straße" }, "geometry": { "type": "Point", "coordinates": [ 11.976553378481627, 51.199517538988161 ] } },
{ "type": "Feature", "properties": { "street_name": "Angerstraße" }, "geometry": { "type": "Point", "coordinates": [ 11.586232570103524, 51.206211307684946 ] } },
{ "type": "Feature", "properties": { "street_name": "Anna-Magdalena-Bach-Straße" }, "geometry": { "type": "Point", "coordinates": [ 12.155403615441823, 51.040569389372877 ] } },
{ "type": "Feature", "properties": { "street_name": "Anny-Schäfer-Weg" }, "geometry": { "type": "Point", "coordinates": [ 11.785093763025944, 51.141225456866934 ] } },
{ "type": "Feature", "properties": { "street_name": "Apfelweg" }, "geometry": { "type": "Point", "coordinates": [ 12.020085225615539, 51.125277006931839 ] } },
{ "type": "Feature", "properties": { "street_name": "Arndtstraße" }, "geometry": { "type": "Point", "coordinates": [ 11.970508741754729, 51.195941800594291 ] } },
{ "type": "Feature", "properties": { "street_name": "Arno-Trübenbach-Straße" }, "geometry": { "type": "Point", "coordinates": [ 11.967791930124504, 51.180516794554592 ] } },
{ "type": "Feature", "properties": { "street_name": "Artur-Klötzner-Straße" }, "geometry": { "type": "Point", "coordinates": [ 12.252307068910232, 51.074927066332585 ] } },
{ "type": "Feature", "properties": { "street_name": "Arvid-von-Harnack-Straße" }, "geometry": { "type": "Point", "coordinates": [ 11.983069636024364, 51.202592752945286 ] } },
{ "type": "Feature", "properties": { "street_name": "Askanierweg" }, "geometry": { "type": "Point", "coordinates": [ 11.984328471327832, 51.221395563834434 ] } },
{ "type": "Feature", "properties": { "street_name": "Asternweg" }, "geometry": { "type": "Point", "coordinates": [ 12.17437463699804, 51.054750514420313 ] } },
{ "type": "Feature", "properties": { "street_name": "Auenstraße" }, "geometry": { "type": "Point", "coordinates": [ 12.045489922033166, 51.277819072754063 ] } },
{ "type": "Feature", "properties": { "street_name": "Auenweg" }, "geometry": { "type": "Point", "coordinates": [ 11.935436013123075, 51.21334837627959 ] } },
{ "type": "Feature", "properties": { "street_name": "Auestraße" }, "geometry": { "type": "Point", "coordinates": [ 12.130390876519272, 51.061516673190297 ] } },
{ "type": "Feature", "properties": { "street_name": "August-Bebel-Straße" }, "geometry": { "type": "Point", "coordinates": [ 12.143292640316425, 51.047774102444549 ] } },
{ "type": "Feature", "properties": { "street_name": "August-Dietzschold-Straße" }, "geometry": { "type": "Point", "coordinates": [ 12.127410028933456, 51.064971437591765 ] } },
{ "type": "Feature", "properties": { "street_name": "Aupitzbachweg" }, "geometry": { "type": "Point", "coordinates": [ 12.097207785967722, 51.1608720322605 ] } },
{ "type": "Feature", "properties": { "street_name": "Aupitzer Straße" }, "geometry": { "type": "Point", "coordinates": [ 12.021568544795612, 51.17721518338508 ] } },
{ "type": "Feature", "properties": { "street_name": "Aupitzer Weg" }, "geometry": { "type": "Point", "coordinates": [ 12.022794252903825, 51.189872000216823 ] } },
{ "type": "Feature", "properties": { "street_name": "Aylsdorfer Straße" }, "geometry": { "type": "Point", "coordinates": [ 12.132855785595424, 51.059894992415927 ] } },
{ "type": "Feature", "properties": { "street_name": "Bachstraße" }, "geometry": { "type": "Point", "coordinates": [ 11.926405372054965, 51.078348474731563 ] } },
{ "type": "Feature", "properties": { "street_name": "Bachweg" }, "geometry": { "type": "Point", "coordinates": [ 12.038936116263045, 51.126491037625634 ] } },
{ "type": "Feature", "properties": { "street_name": "Bad Bibraer Straße" }, "geometry": { "type": "Point", "coordinates": [ 11.598473805052395, 51.220422642574903 ] } },
{ "type": "Feature", "properties": { "street_name": "Bad Bibraer Weg" }, "geometry": { "type": "Point", "coordinates": [ 11.562624734631729, 51.12361601656756 ] } },
{ "type": "Feature", "properties": { "street_name": "Bad Dürrenberger Straße" }, "geometry": { "type": "Point", "coordinates": [ 12.039913383646018, 51.246154469106528 ] } },
{ "type": "Feature", "properties": { "street_name": "Bad Friedrichshaller Straße" }, "geometry": { "type": "Point", "coordinates": [ 12.099182282794473, 51.157027773092466 ] } },
{ "type": "Feature", "properties": { "street_name": "Baderstraße" }, "geometry": { "type": "Point", "coordinates": [ 12.132379098270862, 51.050253951780817 ] } },
{ "type": "Feature", "properties": { "street_name": "Badstraße" }, "geometry": { "type": "Point", "coordinates": [ 11.825402148758073, 51.154433151477171 ] } },
{ "type": "Feature", "properties": { "street_name": "Baenschstraße" }, "geometry": { "type": "Point", "coordinates": [ 12.128778202112061, 51.055723260794288 ] } },
{ "type": "Feature", "properties": { "street_name": "Bahnhofsstraße" }, "geometry": { "type": "Point", "coordinates": [ 12.020743141793412, 51.274010190464821 ] } },
{ "type": "Feature", "properties": { "street_name": "Bahnhofstraße" }, "geometry": { "type": "Point", "coordinates": [ 11.583309982372185, 51.206032644490293 ] } },
{ "type": "Feature", "properties": { "street_name": "Bahnhofsweg" }, "geometry": { "type": "Point", "coordinates": [ 12.024082555739223, 51.043644121928388 ] } },
{ "type": "Feature", "properties": { "street_name": "Bahnstraße" }, "geometry": { "type": "Point", "coordinates": [ 12.021535687048399, 51.12787665584829 ] } },
{ "type": "Feature", "properties": { "street_name": "Bahnstraße Weißenfels-Naumburg" }, "geometry": { "type": "Point", "coordinates": [ 11.931283876049779, 51.201064578512046 ] } },
{ "type": "Feature", "properties": { "street_name": "Balgstädter Straße" }, "geometry": { "type": "Point", "coordinates": [ 11.646412413339776, 51.178443589050246 ] } },
{ "type": "Feature", "properties": { "street_name": "Barbarastraße" }, "geometry": { "type": "Point", "coordinates": [ 11.818852027965061, 51.157883924736545 ] } },
{ "type": "Feature", "properties": { "street_name": "Barbarossastraße" }, "geometry": { "type": "Point", "coordinates": [ 12.237127340455563, 50.993700360633845 ] } },
{ "type": "Feature", "properties": { "street_name": "Bauernweg" }, "geometry": { "type": "Point", "coordinates": [ 11.946475851336512, 51.202139640920414 ] } },
{ "type": "Feature", "properties": { "street_name": "Baum des Jahres Weg" }, "geometry": { "type": "Point", "coordinates": [ 12.084030700034047, 50.995047741423988 ] } },
{ "type": "Feature", "properties": { "street_name": "Baumersrodaer Weg" }, "geometry": { "type": "Point", "coordinates": [ 11.725086771205854, 51.259341182974723 ] } },
{ "type": "Feature", "properties": { "street_name": "Baustraße Saalebrücke Stendorf" }, "geometry": { "type": "Point", "coordinates": [ 11.657334285800482, 51.119991393768203 ] } },
{ "type": "Feature", "properties": { "street_name": "Bauvereinsweg" }, "geometry": { "type": "Point", "coordinates": [ 12.102187234218112, 51.159625885056528 ] } },
{ "type": "Feature", "properties": { "street_name": "Bayerische Straße" }, "geometry": { "type": "Point", "coordinates": [ 12.017092140448662, 51.184638838422998 ] } },
{ "type": "Feature", "properties": { "street_name": "Beethovenstraße" }, "geometry": { "type": "Point", "coordinates": [ 12.136679954839687, 51.250684637775755 ] } },
{ "type": "Feature", "properties": { "street_name": "Beichlinger Straße" }, "geometry": { "type": "Point", "coordinates": [ 11.426939008511731, 51.239326083930834 ] } },
{ "type": "Feature", "properties": { "street_name": "Belgrader Straße" }, "geometry": { "type": "Point", "coordinates": [ 12.131185981738753, 51.042315511666331 ] } },
{ "type": "Feature", "properties": { "street_name": "Berbigstraße" }, "geometry": { "type": "Point", "coordinates": [ 11.725669619188036, 51.137482186261742 ] } },
{ "type": "Feature", "properties": { "street_name": "Bergerstraße" }, "geometry": { "type": "Point", "coordinates": [ 12.172358225802046, 51.215983246797705 ] } },
{ "type": "Feature", "properties": { "street_name": "Bergisdorfer Weg" }, "geometry": { "type": "Point", "coordinates": [ 12.127666519487653, 51.035337925353232 ] } },
{ "type": "Feature", "properties": { "street_name": "Bergrat-Backs-Straße" }, "geometry": { "type": "Point", "coordinates": [ 11.72689733324297, 51.129316958289436 ] } },
{ "type": "Feature", "properties": { "street_name": "Bergstraße" }, "geometry": { "type": "Point", "coordinates": [ 11.799993882948067, 51.159555209181747 ] } },
{ "type": "Feature", "properties": { "street_name": "Bergtagweg" }, "geometry": { "type": "Point", "coordinates": [ 11.753162827267239, 51.14055624743866 ] } },
{ "type": "Feature", "properties": { "street_name": "Bergweg" }, "geometry": { "type": "Point", "coordinates": [ 12.1330873359611, 51.006168298406337 ] } },
{ "type": "Feature", "properties": { "street_name": "Besenstraße" }, "geometry": { "type": "Point", "coordinates": [ 12.119647470954177, 50.977309245566289 ] } },
{ "type": "Feature", "properties": { "street_name": "Bettelweg" }, "geometry": { "type": "Point", "coordinates": [ 12.149939868402649, 51.05216743258913 ] } },
{ "type": "Feature", "properties": { "street_name": "Betty-Kormann-Straße" }, "geometry": { "type": "Point", "coordinates": [ 12.10761929585156, 51.08964499841376 ] } },
{ "type": "Feature", "properties": { "street_name": "Beuditzstraße" }, "geometry": { "type": "Point", "coordinates": [ 11.960292350014049, 51.199898250052165 ] } },
{ "type": "Feature", "properties": { "street_name": "Bibertalweg" }, "geometry": { "type": "Point", "coordinates": [ 11.614950848116663, 51.223940975706412 ] } },
{ "type": "Feature", "properties": { "street_name": "Bibraer Straße" }, "geometry": { "type": "Point", "coordinates": [ 11.564119472971711, 51.122892806829967 ] } },
{ "type": "Feature", "properties": { "street_name": "Birkenweg" }, "geometry": { "type": "Point", "coordinates": [ 12.108339290090372, 51.080928789648631 ] } },
{ "type": "Feature", "properties": { "street_name": "Bismarckstraße" }, "geometry": { "type": "Point", "coordinates": [ 11.981707227418758, 51.204541112748146 ] } },
{ "type": "Feature", "properties": { "street_name": "Bleichplanweg" }, "geometry": { "type": "Point", "coordinates": [ 11.574649082879562, 51.28787444019067 ] } },
{ "type": "Feature", "properties": { "street_name": "Blindetalweg" }, "geometry": { "type": "Point", "coordinates": [ 11.609016518580177, 51.242372370528258 ] } },
{ "type": "Feature", "properties": { "street_name": "Blücherstraße" }, "geometry": { "type": "Point", "coordinates": [ 12.180629774869312, 51.215349131819529 ] } },
{ "type": "Feature", "properties": { "street_name": "Blücherweg" }, "geometry": { "type": "Point", "coordinates": [ 11.98227763020904, 51.19922834484094 ] } },
{ "type": "Feature", "properties": { "street_name": "Blumenstraße" }, "geometry": { "type": "Point", "coordinates": [ 11.808665180675474, 51.157252733742872 ] } },
{ "type": "Feature", "properties": { "street_name": "Blumenweg" }, "geometry": { "type": "Point", "coordinates": [ 12.092396735009059, 51.155565592839665 ] } },
{ "type": "Feature", "properties": { "street_name": "Boblaser Straße" }, "geometry": { "type": "Point", "coordinates": [ 11.811365171916185, 51.105959547099715 ] } },
{ "type": "Feature", "properties": { "street_name": "Boblaser Weg" }, "geometry": { "type": "Point", "coordinates": [ 11.841670868113454, 51.116668875894725 ] } },
{ "type": "Feature", "properties": { "street_name": "Bockwitzer Straße" }, "geometry": { "type": "Point", "coordinates": [ 12.22878949478878, 51.019995344691516 ] } },
{ "type": "Feature", "properties": { "street_name": "Bockwitzer Weg" }, "geometry": { "type": "Point", "coordinates": [ 12.219462454193843, 51.029719731916146 ] } },
{ "type": "Feature", "properties": { "street_name": "Bonauer Straße" }, "geometry": { "type": "Point", "coordinates": [ 11.996347923254472, 51.094894045898585 ] } },
{ "type": "Feature", "properties": { "street_name": "Bonauer Weg" }, "geometry": { "type": "Point", "coordinates": [ 11.993316155347223, 51.093222067108336 ] } },
{ "type": "Feature", "properties": { "street_name": "Borkener Straße" }, "geometry": { "type": "Point", "coordinates": [ 12.023451480360158, 51.126180104568952 ] } },
{ "type": "Feature", "properties": { "street_name": "Borlachstraße" }, "geometry": { "type": "Point", "coordinates": [ 11.717189205999572, 51.128856491721507 ] } },
{ "type": "Feature", "properties": { "street_name": "Bornitzer Bahnhofstraße" }, "geometry": { "type": "Point", "coordinates": [ 12.171149450020449, 51.092443050004917 ] } },
{ "type": "Feature", "properties": { "street_name": "Bornitzer Hauptstraße" }, "geometry": { "type": "Point", "coordinates": [ 12.172116685941477, 51.08862334670075 ] } },
{ "type": "Feature", "properties": { "street_name": "Bornitzer Mühlenweg" }, "geometry": { "type": "Point", "coordinates": [ 12.166738302321102, 51.083325272533742 ] } },
{ "type": "Feature", "properties": { "street_name": "Bornitzer Weg" }, "geometry": { "type": "Point", "coordinates": [ 12.182285831788477, 51.085306664114228 ] } },
{ "type": "Feature", "properties": { "street_name": "Bornitzer Wiesenweg" }, "geometry": { "type": "Point", "coordinates": [ 12.170025474041365, 51.086570339204961 ] } },
{ "type": "Feature", "properties": { "street_name": "Bornstraße" }, "geometry": { "type": "Point", "coordinates": [ 12.105173705691074, 51.087327033609768 ] } },
{ "type": "Feature", "properties": { "street_name": "Borntalweg" }, "geometry": { "type": "Point", "coordinates": [ 12.010607623069438, 51.015570855070955 ] } },
{ "type": "Feature", "properties": { "street_name": "Bösauer Weg" }, "geometry": { "type": "Point", "coordinates": [ 12.100365915825192, 51.150677888160978 ] } },
{ "type": "Feature", "properties": { "street_name": "Bothfelder Straße" }, "geometry": { "type": "Point", "coordinates": [ 12.049737903886975, 51.253494813810072 ] } },
{ "type": "Feature", "properties": { "street_name": "Brahmsweg" }, "geometry": { "type": "Point", "coordinates": [ 11.948452347489104, 51.195561663875793 ] } },
{ "type": "Feature", "properties": { "street_name": "Brauhausstraße" }, "geometry": { "type": "Point", "coordinates": [ 11.866275032344301, 51.210223249120055 ] } },
{ "type": "Feature", "properties": { "street_name": "Braustraße" }, "geometry": { "type": "Point", "coordinates": [ 12.133668540255011, 51.050148329368845 ] } },
{ "type": "Feature", "properties": { "street_name": "Breite Straße" }, "geometry": { "type": "Point", "coordinates": [ 11.577334489596598, 51.28847368716449 ] } },
{ "type": "Feature", "properties": { "street_name": "Bröckauer Dorfstraße" }, "geometry": { "type": "Point", "coordinates": [ 12.215988003279195, 50.961917204353817 ] } },
{ "type": "Feature", "properties": { "street_name": "Bröckauer Hauptstraße" }, "geometry": { "type": "Point", "coordinates": [ 12.211777237906714, 50.962624301163139 ] } },
{ "type": "Feature", "properties": { "street_name": "Bröckauer Straße" }, "geometry": { "type": "Point", "coordinates": [ 12.198945139165891, 50.975018449656176 ] } },
{ "type": "Feature", "properties": { "street_name": "Bröditzer Weg" }, "geometry": { "type": "Point", "coordinates": [ 12.121588058136533, 51.091551701905225 ] } },
{ "type": "Feature", "properties": { "street_name": "Brossener Weg" }, "geometry": { "type": "Point", "coordinates": [ 12.271200431767708, 51.030517996724583 ] } },
{ "type": "Feature", "properties": { "street_name": "Brückenstraße" }, "geometry": { "type": "Point", "coordinates": [ 12.076464215090958, 51.191517990227219 ] } },
{ "type": "Feature", "properties": { "street_name": "Brückenweg" }, "geometry": { "type": "Point", "coordinates": [ 12.131590036989497, 51.054013382947829 ] } },
{ "type": "Feature", "properties": { "street_name": "Brüderstraße" }, "geometry": { "type": "Point", "coordinates": [ 12.133409065937807, 51.049523145371467 ] } },
{ "type": "Feature", "properties": { "street_name": "Brunnenstraße" }, "geometry": { "type": "Point", "coordinates": [ 11.569684914971219, 51.239267061561996 ] } },
{ "type": "Feature", "properties": { "street_name": "Brunnenweg" }, "geometry": { "type": "Point", "coordinates": [ 12.024245021387694, 51.040723290336253 ] } },
{ "type": "Feature", "properties": { "street_name": "Buberle MatMat Weg" }, "geometry": { "type": "Point", "coordinates": [ 11.887608314732789, 51.134040170774249 ] } },
{ "type": "Feature", "properties": { "street_name": "Buchaer Straße" }, "geometry": { "type": "Point", "coordinates": [ 11.520542950486814, 51.215421933985361 ] } },
{ "type": "Feature", "properties": { "street_name": "Buchenweg" }, "geometry": { "type": "Point", "coordinates": [ 12.155567020326158, 51.033182175415945 ] } },
{ "type": "Feature", "properties": { "street_name": "Buchheimer Straße" }, "geometry": { "type": "Point", "coordinates": [ 11.981973698133878, 50.997948116471306 ] } },
{ "type": "Feature", "properties": { "street_name": "Buchheimer Weg" }, "geometry": { "type": "Point", "coordinates": [ 11.983122564138554, 51.006314851914787 ] } },
{ "type": "Feature", "properties": { "street_name": "Buchholzstraße" }, "geometry": { "type": "Point", "coordinates": [ 11.806451044024097, 51.148591808981266 ] } },
{ "type": "Feature", "properties": { "street_name": "Budapester Straße" }, "geometry": { "type": "Point", "coordinates": [ 12.132898971269299, 51.0423961938641 ] } },
{ "type": "Feature", "properties": { "street_name": "Bukarester Straße" }, "geometry": { "type": "Point", "coordinates": [ 12.134458907480402, 51.041108643883753 ] } },
{ "type": "Feature", "properties": { "street_name": "Bürgergartenstraße" }, "geometry": { "type": "Point", "coordinates": [ 11.810872545381846, 51.149199712130667 ] } },
{ "type": "Feature", "properties": { "street_name": "Burgholzweg" }, "geometry": { "type": "Point", "coordinates": [ 11.781164083161276, 51.211697261362701 ] } },
{ "type": "Feature", "properties": { "street_name": "Burgstraße" }, "geometry": { "type": "Point", "coordinates": [ 11.870290985720242, 51.19758775750455 ] } },
{ "type": "Feature", "properties": { "street_name": "Burgweg" }, "geometry": { "type": "Point", "coordinates": [ 11.566204847524308, 51.119554728885156 ] } },
{ "type": "Feature", "properties": { "street_name": "Burgwerbener Straße" }, "geometry": { "type": "Point", "coordinates": [ 11.97788491771729, 51.220827645574033 ] } },
{ "type": "Feature", "properties": { "street_name": "Burkersrodaer Straße" }, "geometry": { "type": "Point", "coordinates": [ 11.7318472035643, 51.203987388147567 ] } },
{ "type": "Feature", "properties": { "street_name": "Burtschützer Straße" }, "geometry": { "type": "Point", "coordinates": [ 12.176897002223559, 51.052212404247058 ] } },
{ "type": "Feature", "properties": { "street_name": "Butterweg" }, "geometry": { "type": "Point", "coordinates": [ 12.043714151996232, 51.015921225144503 ] } },
{ "type": "Feature", "properties": { "street_name": "Buttstädter Straße" }, "geometry": { "type": "Point", "coordinates": [ 11.478321639774041, 51.143116504776458 ] } },
{ "type": "Feature", "properties": { "street_name": "Camburger Straße" }, "geometry": { "type": "Point", "coordinates": [ 12.026607719784726, 51.041583071134937 ] } },
{ "type": "Feature", "properties": { "street_name": "Campingplatzweg" }, "geometry": { "type": "Point", "coordinates": [ 11.721026369863836, 51.12051394498701 ] } },
{ "type": "Feature", "properties": { "street_name": "Carl-Adolph-Riebeck-Straße" }, "geometry": { "type": "Point", "coordinates": [ 12.097017278636059, 51.164188173354397 ] } },
{ "type": "Feature", "properties": { "street_name": "Carl-Benz-Straße" }, "geometry": { "type": "Point", "coordinates": [ 12.125394241858533, 51.044277397409545 ] } },
{ "type": "Feature", "properties": { "street_name": "Carl-Broche-Straße" }, "geometry": { "type": "Point", "coordinates": [ 11.823889235576216, 51.149515190334853 ] } },
{ "type": "Feature", "properties": { "street_name": "Carl-Enke Straße" }, "geometry": { "type": "Point", "coordinates": [ 11.86817164852844, 51.210662358095369 ] } },
{ "type": "Feature", "properties": { "street_name": "Carl-Exter-Straße" }, "geometry": { "type": "Point", "coordinates": [ 12.097101789775953, 51.163133115007447 ] } },
{ "type": "Feature", "properties": { "street_name": "Carlsberger Weg" }, "geometry": { "type": "Point", "coordinates": [ 11.926453642534952, 51.18668991431317 ] } },
{ "type": "Feature", "properties": { "street_name": "Caroline-Neuber-Straße" }, "geometry": { "type": "Point", "coordinates": [ 11.939035385672677, 51.202161339989523 ] } },
{ "type": "Feature", "properties": { "street_name": "Charlottenstraße" }, "geometry": { "type": "Point", "coordinates": [ 11.811864588626801, 51.145340204729408 ] } },
{ "type": "Feature", "properties": { "street_name": "Christian-Weise-Straße" }, "geometry": { "type": "Point", "coordinates": [ 11.976158276292042, 51.187160685081686 ] } },
{ "type": "Feature", "properties": { "street_name": "Christop-Buchen-Straße" }, "geometry": { "type": "Point", "coordinates": [ 11.969133512911014, 51.180959019661657 ] } },
{ "type": "Feature", "properties": { "street_name": "Christoph-Buchen-Straße" }, "geometry": { "type": "Point", "coordinates": [ 11.96611837050334, 51.182226968249161 ] } },
{ "type": "Feature", "properties": { "street_name": "Christoph-Willi-Gehring-Straße" }, "geometry": { "type": "Point", "coordinates": [ 11.832505590426578, 51.145955193284657 ] } },
{ "type": "Feature", "properties": { "street_name": "Clara-Zetkin-Straße" }, "geometry": { "type": "Point", "coordinates": [ 12.097729392202709, 51.158959416985489 ] } },
{ "type": "Feature", "properties": { "street_name": "Claudiusstraße" }, "geometry": { "type": "Point", "coordinates": [ 11.807456395922205, 51.145963434538871 ] } },
{ "type": "Feature", "properties": { "street_name": "Comeniusweg" }, "geometry": { "type": "Point", "coordinates": [ 11.982033090731415, 51.196616865153636 ] } },
{ "type": "Feature", "properties": { "street_name": "Corseburger Weg" }, "geometry": { "type": "Point", "coordinates": [ 11.938616098030231, 51.081462184174534 ] } },
{ "type": "Feature", "properties": { "street_name": "Courths-Mahler-Straße" }, "geometry": { "type": "Point", "coordinates": [ 11.975131541982705, 51.18722678904259 ] } },
{ "type": "Feature", "properties": { "street_name": "Cranachweg" }, "geometry": { "type": "Point", "coordinates": [ 12.127740405358747, 51.038667600783796 ] } },
{ "type": "Feature", "properties": { "street_name": "Crölpaer Straße" }, "geometry": { "type": "Point", "coordinates": [ 11.73756033727901, 51.105974682155157 ] } },
{ "type": "Feature", "properties": { "street_name": "Crossener Straße" }, "geometry": { "type": "Point", "coordinates": [ 11.998017838223262, 51.006373621376248 ] } },
{ "type": "Feature", "properties": { "street_name": "Curt-Becker-Platz" }, "geometry": { "type": "Point", "coordinates": [ 11.814383899968009, 51.15224565000792 ] } },
{ "type": "Feature", "properties": { "street_name": "Dahlienweg" }, "geometry": { "type": "Point", "coordinates": [ 12.172262398555711, 51.055368400669686 ] } },
{ "type": "Feature", "properties": { "street_name": "Damaschke Straße" }, "geometry": { "type": "Point", "coordinates": [ 11.980364616919466, 51.191469819043874 ] } },
{ "type": "Feature", "properties": { "street_name": "Damaschkestraße" }, "geometry": { "type": "Point", "coordinates": [ 12.028646037713742, 51.265475835244288 ] } },
{ "type": "Feature", "properties": { "street_name": "Dammstraße" }, "geometry": { "type": "Point", "coordinates": [ 12.029043276818085, 51.121110918943479 ] } },
{ "type": "Feature", "properties": { "street_name": "Dammweg" }, "geometry": { "type": "Point", "coordinates": [ 12.029527303957552, 51.122315765705629 ] } },
{ "type": "Feature", "properties": { "street_name": "Der Angerweg" }, "geometry": { "type": "Point", "coordinates": [ 11.704546087855034, 51.254128735473095 ] } },
{ "type": "Feature", "properties": { "street_name": "Deubener Straße" }, "geometry": { "type": "Point", "coordinates": [ 12.067038695538704, 51.097072650186831 ] } },
{ "type": "Feature", "properties": { "street_name": "Deumener Weg" }, "geometry": { "type": "Point", "coordinates": [ 12.097006150774758, 51.150902267119541 ] } },
{ "type": "Feature", "properties": { "street_name": "Diakonissenweg" }, "geometry": { "type": "Point", "coordinates": [ 11.736556899912747, 51.130820900016282 ] } },
{ "type": "Feature", "properties": { "street_name": "Dietendorfer Straße" }, "geometry": { "type": "Point", "coordinates": [ 12.055080364673971, 51.022729112399929 ] } },
{ "type": "Feature", "properties": { "street_name": "Dietrich-Bonhoeffer-Straße" }, "geometry": { "type": "Point", "coordinates": [ 12.158617993822636, 51.041860115609381 ] } },
{ "type": "Feature", "properties": { "street_name": "Dimitroffstraße" }, "geometry": { "type": "Point", "coordinates": [ 12.086013266669571, 51.1129355527803 ] } },
{ "type": "Feature", "properties": { "street_name": "Dippelsdorfer Straße" }, "geometry": { "type": "Point", "coordinates": [ 12.023336804882426, 51.151605214203222 ] } },
{ "type": "Feature", "properties": { "street_name": "Dobergaster Straße" }, "geometry": { "type": "Point", "coordinates": [ 12.120605239598655, 51.149749774921595 ] } },
{ "type": "Feature", "properties": { "street_name": "Dobichauer Straße" }, "geometry": { "type": "Point", "coordinates": [ 11.79260791570322, 51.191547258760664 ] } },
{ "type": "Feature", "properties": { "street_name": "Döbriser Weg" }, "geometry": { "type": "Point", "coordinates": [ 12.165448291754901, 51.088699151107214 ] } },
{ "type": "Feature", "properties": { "street_name": "Doktor-Scheele-Straße" }, "geometry": { "type": "Point", "coordinates": [ 12.024249471657273, 51.262155407220156 ] } },
{ "type": "Feature", "properties": { "street_name": "Doktor-von-Linde-Straße" }, "geometry": { "type": "Point", "coordinates": [ 12.201065775783205, 51.06823675202827 ] } },
{ "type": "Feature", "properties": { "street_name": "Domherrenstraße" }, "geometry": { "type": "Point", "coordinates": [ 12.128531016878535, 51.050283394224401 ] } },
{ "type": "Feature", "properties": { "street_name": "Domsener Straße" }, "geometry": { "type": "Point", "coordinates": [ 12.142833622138156, 51.187013453902125 ] } },
{ "type": "Feature", "properties": { "street_name": "Domsener Weg" }, "geometry": { "type": "Point", "coordinates": [ 12.100847936531322, 51.150959785119895 ] } },
{ "type": "Feature", "properties": { "street_name": "Donaliesstraße" }, "geometry": { "type": "Point", "coordinates": [ 12.135373474543659, 51.05698240651806 ] } },
{ "type": "Feature", "properties": { "street_name": "Dorfstraße" }, "geometry": { "type": "Point", "coordinates": [ 11.458573985062859, 51.20128636138061 ] } },
{ "type": "Feature", "properties": { "street_name": "Döschwitzer Straße" }, "geometry": { "type": "Point", "coordinates": [ 12.033994899970279, 51.073996100005232 ] } },
{ "type": "Feature", "properties": { "street_name": "Döschwitzer Weg" }, "geometry": { "type": "Point", "coordinates": [ 12.029329386125607, 51.048115765303415 ] } },
{ "type": "Feature", "properties": { "street_name": "Dr.-Benjamin-Halevi-Straße" }, "geometry": { "type": "Point", "coordinates": [ 11.968785614103588, 51.19332699016401 ] } },
{ "type": "Feature", "properties": { "street_name": "Dr.-Bergius-Straße" }, "geometry": { "type": "Point", "coordinates": [ 12.19754267553895, 51.073485920346691 ] } },
{ "type": "Feature", "properties": { "street_name": "Dr.-Carl-Foerster-Straße" }, "geometry": { "type": "Point", "coordinates": [ 11.796081027588439, 51.15061515952015 ] } },
{ "type": "Feature", "properties": { "street_name": "Dr.-Engler-Straße" }, "geometry": { "type": "Point", "coordinates": [ 12.195596832927398, 51.066998905201054 ] } },
{ "type": "Feature", "properties": { "street_name": "Dr.-Fischer-Straße" }, "geometry": { "type": "Point", "coordinates": [ 12.185881136113862, 51.064953236358463 ] } },
{ "type": "Feature", "properties": { "street_name": "Dr.-Flörsheim-Allee" }, "geometry": { "type": "Point", "coordinates": [ 12.149233076313728, 51.046622608436451 ] } },
{ "type": "Feature", "properties": { "street_name": "Dr.-Johann-Friedrich-Röhr-Straße" }, "geometry": { "type": "Point", "coordinates": [ 11.777440050574842, 51.169820002857811 ] } },
{ "type": "Feature", "properties": { "street_name": "Dr.-Lange Straße" }, "geometry": { "type": "Point", "coordinates": [ 12.140908821198231, 51.045772663408599 ] } },
{ "type": "Feature", "properties": { "street_name": "Dr.-Löffler-Straße" }, "geometry": { "type": "Point", "coordinates": [ 11.729901897726849, 51.131427039674477 ] } },
{ "type": "Feature", "properties": { "street_name": "Dr.-Pier-Straße" }, "geometry": { "type": "Point", "coordinates": [ 12.199833300013871, 51.077606750005842 ] } },
{ "type": "Feature", "properties": { "street_name": "Dr.-Rosenberger-Weg" }, "geometry": { "type": "Point", "coordinates": [ 11.730388742061802, 51.130811375225271 ] } },
{ "type": "Feature", "properties": { "street_name": "Dr.-Scheele-Straße" }, "geometry": { "type": "Point", "coordinates": [ 12.028334098378195, 51.260037205552905 ] } },
{ "type": "Feature", "properties": { "street_name": "Dr.-Stockmann-Straße" }, "geometry": { "type": "Point", "coordinates": [ 11.582053173769594, 51.207110155183727 ] } },
{ "type": "Feature", "properties": { "street_name": "Dr.-Stöwesand-Straße" }, "geometry": { "type": "Point", "coordinates": [ 12.137930851267944, 51.217941915827517 ] } },
{ "type": "Feature", "properties": { "street_name": "Dr.-Voigt-Straße" }, "geometry": { "type": "Point", "coordinates": [ 12.143446144665544, 51.255877009413112 ] } },
{ "type": "Feature", "properties": { "street_name": "Dr.-Walter-Friedrich-Straße" }, "geometry": { "type": "Point", "coordinates": [ 12.101870048200347, 51.154872400149308 ] } },
{ "type": "Feature", "properties": { "street_name": "Dr.Eduard-Rolle-Straße" }, "geometry": { "type": "Point", "coordinates": [ 12.097233105302792, 51.163592428366435 ] } },
{ "type": "Feature", "properties": { "street_name": "Dragsdorfer Dorfstraße" }, "geometry": { "type": "Point", "coordinates": [ 12.193533423142648, 50.986646021407289 ] } },
{ "type": "Feature", "properties": { "street_name": "Dragsdorfer Hauptstraße" }, "geometry": { "type": "Point", "coordinates": [ 12.190465293475267, 50.98611303390458 ] } },
{ "type": "Feature", "properties": { "street_name": "Dragsdorfer Straße" }, "geometry": { "type": "Point", "coordinates": [ 12.193752485581252, 50.979993731395943 ] } },
{ "type": "Feature", "properties": { "street_name": "Draschwitzer Hauptstraße" }, "geometry": { "type": "Point", "coordinates": [ 12.182967851438379, 51.101419406083501 ] } },
{ "type": "Feature", "properties": { "street_name": "Drei Wege" }, "geometry": { "type": "Point", "coordinates": [ 12.000288169124433, 51.198977445441393 ] } },
{ "type": "Feature", "properties": { "street_name": "Droßdorfer Straße" }, "geometry": { "type": "Point", "coordinates": [ 12.09958284900288, 50.99596544314312 ] } },
{ "type": "Feature", "properties": { "street_name": "Drosselweg" }, "geometry": { "type": "Point", "coordinates": [ 12.15601723676429, 51.267162066328304 ] } },
{ "type": "Feature", "properties": { "street_name": "Droyßiger Straße" }, "geometry": { "type": "Point", "coordinates": [ 11.962946092567558, 51.046267357271212 ] } },
{ "type": "Feature", "properties": { "street_name": "Droyßiger Weg" }, "geometry": { "type": "Point", "coordinates": [ 12.036677903995734, 51.063124105469406 ] } },
{ "type": "Feature", "properties": { "street_name": "Dürerweg" }, "geometry": { "type": "Point", "coordinates": [ 12.131319939901356, 51.039663029593484 ] } },
{ "type": "Feature", "properties": { "street_name": "Dürrenberger Straße" }, "geometry": { "type": "Point", "coordinates": [ 12.04217955732355, 51.285596772573882 ] } },
{ "type": "Feature", "properties": { "street_name": "Ebereschenweg" }, "geometry": { "type": "Point", "coordinates": [ 11.591741733431881, 51.286046372965252 ] } },
{ "type": "Feature", "properties": { "street_name": "Ebersrodaer Straße" }, "geometry": { "type": "Point", "coordinates": [ 11.762020299526341, 51.257085308118043 ] } },
{ "type": "Feature", "properties": { "street_name": "Eckardtstraße" }, "geometry": { "type": "Point", "coordinates": [ 11.798679642808077, 51.14924912993942 ] } },
{ "type": "Feature", "properties": { "street_name": "Eckartsbergaer Straße" }, "geometry": { "type": "Point", "coordinates": [ 11.642530116576737, 51.17813241470526 ] } },
{ "type": "Feature", "properties": { "street_name": "Eckstädter Platz" }, "geometry": { "type": "Point", "coordinates": [ 11.765996037685323, 51.212538183681637 ] } },
{ "type": "Feature", "properties": { "street_name": "Eckstädter Straße" }, "geometry": { "type": "Point", "coordinates": [ 11.767494213561227, 51.214800561534794 ] } },
{ "type": "Feature", "properties": { "street_name": "Eduard-Mörike-Straße" }, "geometry": { "type": "Point", "coordinates": [ 11.966487071503526, 51.214412392133177 ] } },
{ "type": "Feature", "properties": { "street_name": "Eichenstraße" }, "geometry": { "type": "Point", "coordinates": [ 12.130813773226565, 51.190059522177862 ] } },
{ "type": "Feature", "properties": { "street_name": "Eichenweg" }, "geometry": { "type": "Point", "coordinates": [ 11.549195757752958, 51.122714653488487 ] } },
{ "type": "Feature", "properties": { "street_name": "Eichhörnchenweg" }, "geometry": { "type": "Point", "coordinates": [ 12.154719328304173, 51.264357639437613 ] } },
{ "type": "Feature", "properties": { "street_name": "Eichweg" }, "geometry": { "type": "Point", "coordinates": [ 12.259447189641181, 51.026774344916674 ] } },
{ "type": "Feature", "properties": { "street_name": "Einheitsstraße" }, "geometry": { "type": "Point", "coordinates": [ 11.475573847072884, 51.143164127006933 ] } },
{ "type": "Feature", "properties": { "street_name": "Einsteinstraße" }, "geometry": { "type": "Point", "coordinates": [ 12.139708501726007, 51.051537050107719 ] } },
{ "type": "Feature", "properties": { "street_name": "Eisenberger Landstraße" }, "geometry": { "type": "Point", "coordinates": [ 11.945308999645597, 51.042138050189777 ] } },
{ "type": "Feature", "properties": { "street_name": "Eisenberger Straße" }, "geometry": { "type": "Point", "coordinates": [ 11.981101165412028, 51.074189875645303 ] } },
{ "type": "Feature", "properties": { "street_name": "Eislebener Straße" }, "geometry": { "type": "Point", "coordinates": [ 11.782844771907071, 51.166677106676737 ] } },
{ "type": "Feature", "properties": { "street_name": "Elin-Straße" }, "geometry": { "type": "Point", "coordinates": [ 12.016699364755196, 51.191983819486488 ] } },
{ "type": "Feature", "properties": { "street_name": "Ellerbacher Weg" }, "geometry": { "type": "Point", "coordinates": [ 12.138293831609548, 51.259646968992051 ] } },
{ "type": "Feature", "properties": { "street_name": "Elly-Kutscher-Straße" }, "geometry": { "type": "Point", "coordinates": [ 11.733230652724339, 51.132275637352024 ] } },
{ "type": "Feature", "properties": { "street_name": "Elmeweg" }, "geometry": { "type": "Point", "coordinates": [ 11.999807528864611, 51.140826254833797 ] } },
{ "type": "Feature", "properties": { "street_name": "Elsbeerenweg" }, "geometry": { "type": "Point", "coordinates": [ 11.784961726299196, 51.211829284210495 ] } },
{ "type": "Feature", "properties": { "street_name": "Elsterradweg" }, "geometry": { "type": "Point", "coordinates": [ 12.110019300041259, 51.037785650031793 ] } },
{ "type": "Feature", "properties": { "street_name": "Elsterstraße" }, "geometry": { "type": "Point", "coordinates": [ 12.126389598778891, 51.054357106418777 ] } },
{ "type": "Feature", "properties": { "street_name": "Elsterweg" }, "geometry": { "type": "Point", "coordinates": [ 12.023535271751033, 51.009012147597119 ] } },
{ "type": "Feature", "properties": { "street_name": "Emil-Kraatz-Straße" }, "geometry": { "type": "Point", "coordinates": [ 11.821618881121781, 51.149278005970416 ] } },
{ "type": "Feature", "properties": { "street_name": "Erbsenweg" }, "geometry": { "type": "Point", "coordinates": [ 11.831305698084405, 51.15476945310337 ] } },
{ "type": "Feature", "properties": { "street_name": "Erdmann-Neumeister-Platz" }, "geometry": { "type": "Point", "coordinates": [ 11.924875441165529, 51.206761663102036 ] } },
{ "type": "Feature", "properties": { "street_name": "Erdmann-Neumeister-Straße" }, "geometry": { "type": "Point", "coordinates": [ 11.976804071391518, 51.187770726286864 ] } },
{ "type": "Feature", "properties": { "street_name": "Erfurter Straße" }, "geometry": { "type": "Point", "coordinates": [ 11.944593952692902, 51.196602425512793 ] } },
{ "type": "Feature", "properties": { "street_name": "Erich-Langrock-Straße" }, "geometry": { "type": "Point", "coordinates": [ 11.584757205187165, 51.290296930389445 ] } },
{ "type": "Feature", "properties": { "street_name": "Erich-Lattermann-Straße" }, "geometry": { "type": "Point", "coordinates": [ 11.98426549342193, 51.204112455809891 ] } },
{ "type": "Feature", "properties": { "street_name": "Erich-Weinert-Straße" }, "geometry": { "type": "Point", "coordinates": [ 11.941086948106038, 51.201541981400545 ] } },
{ "type": "Feature", "properties": { "street_name": "Erlenweg" }, "geometry": { "type": "Point", "coordinates": [ 11.589802404719203, 51.286064371071376 ] } },
{ "type": "Feature", "properties": { "street_name": "Ernst-Hentschel-Straße" }, "geometry": { "type": "Point", "coordinates": [ 11.954895051563989, 51.196911650036739 ] } },
{ "type": "Feature", "properties": { "street_name": "Ernst-Klette-Straße" }, "geometry": { "type": "Point", "coordinates": [ 11.981381638137863, 51.202195305655579 ] } },
{ "type": "Feature", "properties": { "street_name": "Ernst-Schneller-Straße" }, "geometry": { "type": "Point", "coordinates": [ 11.990970051168535, 51.209364550062439 ] } },
{ "type": "Feature", "properties": { "street_name": "Ernst-Thälmann-Platz" }, "geometry": { "type": "Point", "coordinates": [ 12.053542409765202, 51.182954944653609 ] } },
{ "type": "Feature", "properties": { "street_name": "Ernst-Thälmann-Straße" }, "geometry": { "type": "Point", "coordinates": [ 12.141337883959761, 51.257568905254232 ] } },
{ "type": "Feature", "properties": { "street_name": "Ernst-Toller-Straße" }, "geometry": { "type": "Point", "coordinates": [ 11.978247501971778, 51.189308203794695 ] } },
{ "type": "Feature", "properties": { "street_name": "Eselsweg" }, "geometry": { "type": "Point", "coordinates": [ 11.825302378708765, 51.050354304502989 ] } },
{ "type": "Feature", "properties": { "street_name": "Espigweg" }, "geometry": { "type": "Point", "coordinates": [ 11.967196180879986, 51.056101842904994 ] } },
{ "type": "Feature", "properties": { "street_name": "Etzoldshainer Straße" }, "geometry": { "type": "Point", "coordinates": [ 12.212238372356053, 51.092558203487442 ] } },
{ "type": "Feature", "properties": { "street_name": "F.-W.-Liebknecht-Straße" }, "geometry": { "type": "Point", "coordinates": [ 12.182514343534198, 51.219700232255278 ] } },
{ "type": "Feature", "properties": { "street_name": "Fabrikstraße" }, "geometry": { "type": "Point", "coordinates": [ 12.104909599987, 51.088281400006423 ] } },
{ "type": "Feature", "properties": { "street_name": "Fährstraße" }, "geometry": { "type": "Point", "coordinates": [ 12.04402244624462, 51.255884908160056 ] } },
{ "type": "Feature", "properties": { "street_name": "Falkenhofstraße" }, "geometry": { "type": "Point", "coordinates": [ 11.885384764479502, 51.132981336647603 ] } },
{ "type": "Feature", "properties": { "street_name": "Fallenweg" }, "geometry": { "type": "Point", "coordinates": [ 12.011109590936968, 51.018796151270145 ] } },
{ "type": "Feature", "properties": { "street_name": "Fallerslebener Weg" }, "geometry": { "type": "Point", "coordinates": [ 11.957671564614348, 51.218558422535729 ] } },
{ "type": "Feature", "properties": { "street_name": "Fasanenweg" }, "geometry": { "type": "Point", "coordinates": [ 12.155218984376253, 51.266012199255869 ] } },
{ "type": "Feature", "properties": { "street_name": "Feengrotten - Kyffhäuser Wanderweg" }, "geometry": { "type": "Point", "coordinates": [ 11.704977700054481, 51.108887650024315 ] } },
{ "type": "Feature", "properties": { "street_name": "Feldstraße" }, "geometry": { "type": "Point", "coordinates": [ 12.024861159460416, 51.260475446194917 ] } },
{ "type": "Feature", "properties": { "street_name": "Feldweg" }, "geometry": { "type": "Point", "coordinates": [ 12.175890691175773, 50.981577462206623 ] } },
{ "type": "Feature", "properties": { "street_name": "Felleisenweg" }, "geometry": { "type": "Point", "coordinates": [ 12.12979718069758, 51.038535635201804 ] } },
{ "type": "Feature", "properties": { "street_name": "Ferberstraße" }, "geometry": { "type": "Point", "coordinates": [ 11.95608099962357, 51.197112519515599 ] } },
{ "type": "Feature", "properties": { "street_name": "Feuerbachstraße" }, "geometry": { "type": "Point", "coordinates": [ 11.971264059564913, 51.172983483497511 ] } },
{ "type": "Feature", "properties": { "street_name": "Fichtestraße" }, "geometry": { "type": "Point", "coordinates": [ 12.145611991783376, 51.04613264481214 ] } },
{ "type": "Feature", "properties": { "street_name": "Finkenweg" }, "geometry": { "type": "Point", "coordinates": [ 12.157741441258123, 51.265978352305943 ] } },
{ "type": "Feature", "properties": { "street_name": "Finne Wanderweg" }, "geometry": { "type": "Point", "coordinates": [ 11.903760481454407, 51.177733214046654 ] } },
{ "type": "Feature", "properties": { "street_name": "Fischstraße" }, "geometry": { "type": "Point", "coordinates": [ 12.134601108331184, 51.049912986050806 ] } },
{ "type": "Feature", "properties": { "street_name": "Flemminger Weg" }, "geometry": { "type": "Point", "coordinates": [ 11.795883299603974, 51.147718350824995 ] } },
{ "type": "Feature", "properties": { "street_name": "Flemmingweg" }, "geometry": { "type": "Point", "coordinates": [ 11.761335789966679, 51.20715416643678 ] } },
{ "type": "Feature", "properties": { "street_name": "Fliederweg" }, "geometry": { "type": "Point", "coordinates": [ 11.64110277425095, 51.277725538584804 ] } },
{ "type": "Feature", "properties": { "street_name": "Florian Geyer Straße" }, "geometry": { "type": "Point", "coordinates": [ 11.954530526905305, 51.238727988662191 ] } },
{ "type": "Feature", "properties": { "street_name": "Floßgrabenstraße" }, "geometry": { "type": "Point", "coordinates": [ 12.134454457944715, 51.064525530068053 ] } },
{ "type": "Feature", "properties": { "street_name": "Forststraße" }, "geometry": { "type": "Point", "coordinates": [ 12.108214332462993, 51.034886710900246 ] } },
{ "type": "Feature", "properties": { "street_name": "Forstweg" }, "geometry": { "type": "Point", "coordinates": [ 12.196377707913474, 51.003847224626796 ] } },
{ "type": "Feature", "properties": { "street_name": "Francoisstraße" }, "geometry": { "type": "Point", "coordinates": [ 11.971041856737346, 51.196691353376387 ] } },
{ "type": "Feature", "properties": { "street_name": "Fränkenauer Weg" }, "geometry": { "type": "Point", "coordinates": [ 11.714754698256439, 51.131674975809212 ] } },
{ "type": "Feature", "properties": { "street_name": "Frankestraße" }, "geometry": { "type": "Point", "coordinates": [ 11.980857457916327, 51.196638475187669 ] } },
{ "type": "Feature", "properties": { "street_name": "Franz-Julius-Haenel-Straße" }, "geometry": { "type": "Point", "coordinates": [ 11.824106212336885, 51.141939318415496 ] } },
{ "type": "Feature", "properties": { "street_name": "Franz-Julius-Hoeltz-Straße" }, "geometry": { "type": "Point", "coordinates": [ 11.823972499968328, 51.147395350003038 ] } },
{ "type": "Feature", "properties": { "street_name": "Franz-Liszt-Straße" }, "geometry": { "type": "Point", "coordinates": [ 12.17686328980977, 51.05647645147652 ] } },
{ "type": "Feature", "properties": { "street_name": "Franz-Ludwig-Rasch-Straße" }, "geometry": { "type": "Point", "coordinates": [ 11.807501985568617, 51.16063073067501 ] } },
{ "type": "Feature", "properties": { "street_name": "Franz-Schubert-Straße" }, "geometry": { "type": "Point", "coordinates": [ 11.947391217182107, 51.200189389196261 ] } },
{ "type": "Feature", "properties": { "street_name": "Franz-Siglin-Straße" }, "geometry": { "type": "Point", "coordinates": [ 12.003620156072843, 51.144374075506441 ] } },
{ "type": "Feature", "properties": { "street_name": "Franz-Spiller-Platz" }, "geometry": { "type": "Point", "coordinates": [ 12.095344163467791, 51.156089311544271 ] } },
{ "type": "Feature", "properties": { "street_name": "Frauenhainer Hauptstraße" }, "geometry": { "type": "Point", "coordinates": [ 12.131507920723791, 51.004074393613905 ] } },
{ "type": "Feature", "properties": { "street_name": "Freiheitsstraße" }, "geometry": { "type": "Point", "coordinates": [ 12.134694904773417, 51.035856751470732 ] } },
{ "type": "Feature", "properties": { "street_name": "Freiherr-vom-Stein-Straße" }, "geometry": { "type": "Point", "coordinates": [ 11.984934032496936, 51.192812217021995 ] } },
{ "type": "Feature", "properties": { "street_name": "Freiherr-von-Reichenbach-Straße" }, "geometry": { "type": "Point", "coordinates": [ 12.095463105176606, 51.162627530090752 ] } },
{ "type": "Feature", "properties": { "street_name": "Freiligrathstraße" }, "geometry": { "type": "Point", "coordinates": [ 12.142057642997047, 51.05406686901776 ] } },
{ "type": "Feature", "properties": { "street_name": "Freyburger Straße" }, "geometry": { "type": "Point", "coordinates": [ 11.8031728242048, 51.15372065583248 ] } },
{ "type": "Feature", "properties": { "street_name": "Friedensburgstraße" }, "geometry": { "type": "Point", "coordinates": [ 12.278484317783271, 51.017347467331838 ] } },
{ "type": "Feature", "properties": { "street_name": "Friedensstraße" }, "geometry": { "type": "Point", "coordinates": [ 12.099707593470869, 51.157819741016937 ] } },
{ "type": "Feature", "properties": { "street_name": "Friedensthalweg" }, "geometry": { "type": "Point", "coordinates": [ 11.788662865548439, 51.21256647057087 ] } },
{ "type": "Feature", "properties": { "street_name": "Friedenstraße" }, "geometry": { "type": "Point", "coordinates": [ 11.47632731924266, 51.144556163457771 ] } },
{ "type": "Feature", "properties": { "street_name": "Friedhofstraße" }, "geometry": { "type": "Point", "coordinates": [ 11.926462661523017, 51.115574594623446 ] } },
{ "type": "Feature", "properties": { "street_name": "Friedhofsweg" }, "geometry": { "type": "Point", "coordinates": [ 11.771606125678883, 51.220634260140685 ] } },
{ "type": "Feature", "properties": { "street_name": "Friedrich-Degelow-Straße" }, "geometry": { "type": "Point", "coordinates": [ 12.135050137577796, 51.061864837679984 ] } },
{ "type": "Feature", "properties": { "street_name": "Friedrich-Ebert-Straße" }, "geometry": { "type": "Point", "coordinates": [ 11.715780298068999, 51.136838102826623 ] } },
{ "type": "Feature", "properties": { "street_name": "Friedrich-Engels-Straße" }, "geometry": { "type": "Point", "coordinates": [ 12.141959916055933, 51.257652998575907 ] } },
{ "type": "Feature", "properties": { "street_name": "Friedrich-Fröbel-Straße" }, "geometry": { "type": "Point", "coordinates": [ 11.795407611299934, 51.150544407107319 ] } },
{ "type": "Feature", "properties": { "street_name": "Friedrich-Ladegast-Weg" }, "geometry": { "type": "Point", "coordinates": [ 11.78885834590603, 51.142779743153596 ] } },
{ "type": "Feature", "properties": { "street_name": "Friedrich-List-Straße" }, "geometry": { "type": "Point", "coordinates": [ 11.983874465028602, 51.221023172737709 ] } },
{ "type": "Feature", "properties": { "street_name": "Friedrich-Nietzsche-Straße" }, "geometry": { "type": "Point", "coordinates": [ 11.811221000546906, 51.160699169935079 ] } },
{ "type": "Feature", "properties": { "street_name": "Friedrich-Schulze-Straße" }, "geometry": { "type": "Point", "coordinates": [ 11.779545676818874, 51.180933809281242 ] } },
{ "type": "Feature", "properties": { "street_name": "Friedrichsstraße" }, "geometry": { "type": "Point", "coordinates": [ 11.966653436174191, 51.19922913619066 ] } },
{ "type": "Feature", "properties": { "street_name": "Friesenstraße" }, "geometry": { "type": "Point", "coordinates": [ 11.781474974987303, 51.13995797488576 ] } },
{ "type": "Feature", "properties": { "street_name": "Friitz-Schellbach-Straße" }, "geometry": { "type": "Point", "coordinates": [ 11.963638350875081, 51.210225800071981 ] } },
{ "type": "Feature", "properties": { "street_name": "Fritz-Amann-Weg" }, "geometry": { "type": "Point", "coordinates": [ 11.786153000364804, 51.141971587798764 ] } },
{ "type": "Feature", "properties": { "street_name": "Fritz-Gerasch-Weg" }, "geometry": { "type": "Point", "coordinates": [ 11.987190326678061, 51.209165058442906 ] } },
{ "type": "Feature", "properties": { "street_name": "Fritz-Kempe-Straße" }, "geometry": { "type": "Point", "coordinates": [ 12.211240811949221, 51.128449628140501 ] } },
{ "type": "Feature", "properties": { "street_name": "Fritz-Rentzsch-Weg" }, "geometry": { "type": "Point", "coordinates": [ 11.785621497362985, 51.141607053572166 ] } },
{ "type": "Feature", "properties": { "street_name": "Fritz-Schellbach-Straße" }, "geometry": { "type": "Point", "coordinates": [ 11.964606753603491, 51.207855490933362 ] } },
{ "type": "Feature", "properties": { "street_name": "Fritz Schellbach Weg" }, "geometry": { "type": "Point", "coordinates": [ 11.911612760843976, 51.177862031734492 ] } },
{ "type": "Feature", "properties": { "street_name": "Fröbelstraße" }, "geometry": { "type": "Point", "coordinates": [ 12.054441446400434, 51.184519762640242 ] } },
{ "type": "Feature", "properties": { "street_name": "Fürstenweg" }, "geometry": { "type": "Point", "coordinates": [ 11.788201678138813, 51.213673458548804 ] } },
{ "type": "Feature", "properties": { "street_name": "Fußweg zur \"Alten Eiche\"" }, "geometry": { "type": "Point", "coordinates": [ 11.915758643001229, 51.183912984185618 ] } },
{ "type": "Feature", "properties": { "street_name": "Gabelsbergerstraße" }, "geometry": { "type": "Point", "coordinates": [ 11.981004849292763, 51.195754150021934 ] } },
{ "type": "Feature", "properties": { "street_name": "Galgenbergweg" }, "geometry": { "type": "Point", "coordinates": [ 11.739212557051232, 51.136268939879777 ] } },
{ "type": "Feature", "properties": { "street_name": "Gartenstraße" }, "geometry": { "type": "Point", "coordinates": [ 11.810632620634577, 51.156924547773635 ] } },
{ "type": "Feature", "properties": { "street_name": "Gartenweg" }, "geometry": { "type": "Point", "coordinates": [ 11.925940568891813, 51.208512501678214 ] } },
{ "type": "Feature", "properties": { "street_name": "Gärtnerstraße" },